CUST_ORG,BUS_CAT_CL,BUS_CAT_DS,OCCPNT_TYP,SRCDATA_ID,NAME,DESCRIPTN,ADDRESS,ALIAS_ADDR,ST_ADDRESS,POSTAL_CD,LOCALITY,CONT_PHONE,CONT_EMAIL,CONT_FAX,WEBSITE,IMAGE_URL,LATITUDE,LONGITUDE,KEYWORDS,DT_UPDATE,GEOCD_IND,FACEBOOK,PRODUCT_ID,TRSM_AREA,TWITTER,SHAPE,SEQ_ID,X,Y
Destination BC,accommodationServices,Accommodation services,HelloBC Accomodations Listing,1453,Parkside Campground & RV Park,Campgrounds & RV Parks - Private;,"6301 Gold River Hwy, Campbell River, BC",6301 Gold River Hwy,6301 Gold River Hwy,V9H1P1,Campbell River,,,,www.parksidecampingrv.com,,50.0283549,-125.3414464,Accommodation,20181201072117,, ,4541174,Vancouver Island, ,,2687,1047185.4760000005,557157.4149999972
Destination BC,accommodationServices,Accommodation services,HelloBC Accomodations Listing,1454,Whiskey Creek RV Campground,Campgrounds & RV Parks - Private;,"1268 Chatsworth Rd, Qualicum Beach, BC",1268 Chatsworth Rd,1268 Chatsworth Rd,V9K1V6,Qualicum Beach,,,,,,49.2979456,-124.5236649,Accommodation,20181201072117,,https://www.facebook.com/Whiskey-Creek-RV-Campground-226819447356372/,4540356,Vancouver Island, ,,2823,1107466.8800000015,476854.1029999973
Destination BC,accommodationServices,Accommodation services,HelloBC Accomodations Listing,1455,Caron Creek RV Park  & Riverview B&B,Bed & Breakfasts; Campgrounds & RV Parks - Private;,"7545 Hwy 97S, Chetwynd, BC","7545 Hwy 97S, Chetwynd, BC",7545 Hwy 97S,V0C1J0,Chetwynd,,,,,,55.6199513,-121.8143463,Accommodation,20181201072117,, ,4540407,Northern British Columbia, ,,3717,1262889.1240000003,1188204.4209999917
Destination BC,accommodationServices,Accommodation services,HelloBC Accomodations Listing,1456,Granisle Lions Beach Park,Campgrounds & RV Parks - Private;,"Hwy 118, Granisle, BC","Hwy 118, Granisle, BC",Hwy 118,V0J1W0,Granisle,,,,,,54.5070952,-126.3010304,Accommodation,20181201072115,, ,4540925,Northern British Columbia, ,,1483,980553.9399999996,1056251.2820000015
Destination BC,accommodationServices,Accommodation services,HelloBC Accomodations Listing,1457,Caprice B&B,Bed & Breakfasts;,"1111 Gower Point Rd, Gibsons, BC",1111 Gower Point Rd,1111 Gower Point Rd,V0N1V3,Gibsons,,,,,,49.3864376,-123.5302091,Accommodation,20181201072118,,http://www.facebook.com/pages/Caprice-BB/178042632253596,4540358,Vancouver Coast and Mountains, ,,4343,1179417.0720000002,488697.24200000055
Destination BC,accommodationServices,Accommodation services,HelloBC Accomodations Listing,1458,"Hampton Inn & Suites by Hilton, Downtown Vancouver",Hotels & Motels;,"111 Robson St, Vancouver, BC",111 Robson St,111 Robson St,V6B2A8,Vancouver,,,,,,49.277778999999995,-123.114212,Accommodation,20181201072116,,https://www.facebook.com/HamptonInnandSuitesDowntownVancouver,4540426,Vancouver Coast and Mountains,https://twitter.com/hamptondtvan,,1637,1210113.5730000006,477775.8110000007
Destination BC,accommodationServices,Accommodation services,HelloBC Accomodations Listing,1459,Ramada Limited Downtown Vancouver,Hotels & Motels;,"435 Pender St W, Vancouver, BC",435 Pender St W,435 Pender St W,V6B1V2,Vancouver,,,,www.ramadadowntownvancouver.com,,49.2832823,-123.112543,Accommodation,20181201072117,,https://www.facebook.com/pages/Ramada-Limited-Downtown-Vancouver/160317594027306,4539809,Vancouver Coast and Mountains,https://twitter.com/#!/RamadaHotelVan,,3575,1210210.09,478391.756000001
Destination BC,accommodationServices,Accommodation services,HelloBC Accomodations Listing,1460,Ocean Island Inn | Backpackers | Suites,Hostels;,"791 Pandora Ave, Victoria, BC",791 Pandora Ave,791 Pandora Ave,V8W1N9,Victoria,,,,,,48.427968,-123.364059,Accommodation,20181201072117,,http://www.facebook.com/OceanIslandInn,4540317,Vancouver Island,https://twitter.com/oceanislandinn,,2575,1195443.892000001,382768.41899999883
Destination BC,accommodationServices,Accommodation services,HelloBC Accomodations Listing,1461,Kingfisher Oceanside Resort & Spa,Hotels & Motels; Resorts;,"4330 Island Hwy S, Courtenay, BC",4330 Island Hwy S,4330 Island Hwy S,V9N9R9,Courtenay,,,,www.kingfisherspa.com,,49.6324712,-124.9208404,Accommodation,20181201072115,,http://www.facebook.com/kingfisherspa,4540394,Vancouver Island,https://twitter.com/Kingfisherspa,,1469,1077991.1610000003,513508.8879999984
Destination BC,accommodationServices,Accommodation services,HelloBC Accomodations Listing,1462,Fairmont Waterfront,Hotels & Motels;,"900 Canada Pl Way, Vancouver, BC",900 Canada Place Way,900 Canada Pl Way,V6C3L5,Vancouver,,,,www.fairmont.com/waterfront-vancouver,,49.287195999999994,-123.1140201,Accommodation,20181201072116,,http://www.facebook.com/fairmonthotelwaterfront,4540986,Vancouver Coast and Mountains,http://twitter.com/FairmontWF,,2115,1210084.8910000008,478821.8830000004
Destination BC,accommodationServices,Accommodation services,HelloBC Accomodations Listing,1463,Delta Whistler Village Suites,Hotels & Motels;,"4308 Main St, Whistler, BC",4308 Main St,4308 Main St,V0N1B4,Whistler,,,,,,50.117104999999995,-122.956691,Accommodation,20181201072117,,https://www.facebook.com/DeltaWhistler,4540723,Vancouver Coast and Mountains, ,,2947,1217565.3010000011,571487.7259999998
Destination BC,accommodationServices,Accommodation services,HelloBC Accomodations Listing,1464,Powder Springs Inn,Hotels & Motels;,"200 3rd St W, Revelstoke, BC","200 3rd St W, Revelstoke, BC",200 3rd St W,V0E2S0,Revelstoke,,,,powdersprings.ca,,50.9986854,-118.1976265,Accommodation,20181201072116,,https://www.facebook.com/powderspringsinn2013,4539663,Kootenay Rockies, ,,1759,1546039.1390000011,695058.7880000006
Destination BC,accommodationServices,Accommodation services,HelloBC Accomodations Listing,1465,Humboldt House B&B,Bed & Breakfasts;,"867 Humboldt St, Victoria, BC",867 Humboldt St,867 Humboldt St,V8V2Z6,Victoria,,,,,,48.419866,-123.362959,Accommodation,20181201072116,,http://www.facebook.com/VictoriaBC,4540482,Vancouver Island,http://twitter.com/HumboldtHouse,,2739,1195558.896,381873.06099999975
Destination BC,accommodationServices,Accommodation services,HelloBC Accomodations Listing,1466,Executive Hotel Le Soleil,Hotels & Motels;,"567 Hornby St, Vancouver, BC",567 Hornby St,567 Hornby St,V6C2E8,Vancouver,,,,www.hotellesoleil.com,,49.285520999999996,-123.117273,Accommodation,20181201072116,,https://www.facebook.com/ExecutiveHotelLeSoleil,4540417,Vancouver Coast and Mountains,https://twitter.com/hotellesoleilbc,,1887,1209855.8039999986,478626.2700000005
Destination BC,accommodationServices,Accommodation services,HelloBC Accomodations Listing,1467,Hilton Vancouver Metrotown,Hotels & Motels;,"6083 McKay Ave, Burnaby, BC",6083 McKay Ave,6083 McKay Ave,V5H2W7,Burnaby,,,,www.hiltonvancouver.com,,49.228637,-123.003652,Accommodation,20181201072118,,https://www.facebook.com/HiltonVancouverMetro,4540299,Vancouver Coast and Mountains,https://twitter.com/hiltonvanmetro,,3781,1218389.7420000008,472654.9480000073
Destination BC,accommodationServices,Accommodation services,HelloBC Accomodations Listing,1468,Sandman Hotel Victoria,Hotels & Motels;,"2852 Douglas St, Victoria, BC",2852 Douglas St,2852 Douglas St,V8T4M5,Victoria,,,,www.sandmanhotels.com,,48.440369,-123.368055,Accommodation,20181201072116,,http://www.facebook.com/sandmanhotelgroup,4540636,Vancouver Island,http://twitter.com/sandmanhotels,,1865,1195096.5940000007,384132.51700000186
Destination BC,accommodationServices,Accommodation services,HelloBC Accomodations Listing,1469,Best Western Plus Barclay Hotel,Hotels & Motels;,"4277 Stamp Ave, Port Alberni, BC",4277 Stamp Ave,4277 Stamp Ave,V9Y7X8,Port Alberni,,,,www.bestwesternbarclay.com,,49.253217,-124.807391,Accommodation,20181201072116,,http://www.facebook.com/pages/Best-Western-Barclay-Hotel/117897874920796,4539860,Vancouver Island, ,,1807,1086899.5119999999,471495.4980000006
Destination BC,accommodationServices,Accommodation services,HelloBC Accomodations Listing,1470,Best Western PLUS Sunrise Inn,Hotels & Motels;,"5506 Main St, Osoyoos, BC","5506 Main St, Osoyoos, BC",5506 Main St,V0H1V0,Osoyoos,,,,www.bestwesternosoyoos.com,,49.028065999999995,-119.442043,Accommodation,20181201072117,,http://www.facebook.com/bwplussunrise,4540367,Thompson Okanagan,https://twitter.com/BWOsoyoos,,2657,1479499.0219999999,467976.8269999968
Destination BC,accommodationServices,Accommodation services,HelloBC Accomodations Listing,1471,Lizard Creek Lodge at Fernie Alpine Resort,Hotels & Motels;,"5346 Highline Dr, Fernie Alpine Resort, BC",301 Northstar Blvd,5346 Highline Dr,V0B1M6,Fernie Alpine Resort,,,,www.skircr.com,,49.4652235,-115.0857782,Accommodation,20181201072118,,https://www.facebook.com/Lizardcreeklodge,4540301,Kootenay Rockies,https://twitter.com/lizardcreek,,4057,1788538.072000001,555229.8679999961
Destination BC,accommodationServices,Accommodation services,HelloBC Accomodations Listing,1472,Executive Airport Plaza,Hotels & Motels;,"7311 Westminster Hwy, Richmond, BC",7311 Westminster Hwy,7311 Westminster Hwy,V6X1A3,Richmond,,,,www.executivehotels.net,,49.1702,-123.14489499999999,Accommodation,20181201072117,,https://www.facebook.com/pages/Executive-Hotel-Airport-Plaza-Richmond/149243631767483,4541130,Vancouver Coast and Mountains, ,,3037,1208362.6980000015,465742.33999999426
Destination BC,accommodationServices,Accommodation services,HelloBC Accomodations Listing,1473,Best Western Dorchester Hotel,Hotels & Motels;,"70 Church St, Nanaimo, BC",70 Church St,70 Church St,V9R5H4,Nanaimo,,,,www.dorchesternanaimo.com,,49.16804,-123.93671,Accommodation,20181201072116,,http://www.facebook.com/DorchesterNanaimo,4541035,Vancouver Island,http://twitter.com/bwdorchester,,2401,1150603.3320000002,463494.95300000254
Destination BC,accommodationServices,Accommodation services,HelloBC Accomodations Listing,1474,Sandman Hotel Quesnel,Hotels & Motels;,"940 Chew Ave, Quesnel, BC",940 Chew Ave,940 Chew Ave,V2J6R8,Quesnel,,,,www.sandmanhotels.com,,52.963758,-122.441658,Accommodation,20181201072118,,http://www.facebook.com/sandmanhotelgroup,4540332,Cariboo Chilcotin Coast,http://twitter.com/sandmanhotels,,4069,1238420.1889999984,889976.0310000014
Destination BC,accommodationServices,Accommodation services,HelloBC Accomodations Listing,1475,Arcona House on the Lake,Bed & Breakfasts;,"4751 Chilcotin Cres, 108 Mile Ranch, BC","4751 Chilcotin Cres, 108 Mile Ranch, BC",4751 Chilcotin Cres,V0K2Z0,108 Mile Ranch,,,,,,51.7478886,-121.3598034,Accommodation,20181201072117,, ,4540315,Cariboo Chilcotin Coast, ,,2561,1319696.4760000007,758886.9379999964
Destination BC,accommodationServices,Accommodation services,HelloBC Accomodations Listing,1476,Vancouver Marriott Pinnacle Downtown,Hotels & Motels;,"1128 Hastings St W, Vancouver, BC",1128 Hastings St W,1128 Hastings St W,V6E4R5,Vancouver,,,,,,49.288238,-123.12069,Accommodation,20181201072118,,https://www.facebook.com/VancouverMarriottDowntown/,4540304,Vancouver Coast and Mountains,https://twitter.com/VanMarriott,,4341,1209594.9159999995,478917.7990000015
Destination BC,accommodationServices,Accommodation services,HelloBC Accomodations Listing,1477,Bon Voyage Motor Inn,Hotels & Motels;,"4222 Hwy 16W, Prince George, BC",4222 Hwy 16W,4222 Hwy 16W,V2N5N7,Prince George,,,,,,53.8600031,-122.8036184,Accommodation,20181201072116,,https://www.facebook.com/bonvoyageinnpg/?rf=133871889965851,4540716,Northern British Columbia,https://twitter.com/bonvoyageinnpg,,2369,1209671.3010000016,988720.5870000003
Destination BC,accommodationServices,Accommodation services,HelloBC Accomodations Listing,1478,Four Points by Sheraton Kamloops,Hotels & Motels;,"1175 Rogers Way, Kamloops, BC",1175 Rogers Way,1175 Rogers Way,V1S1R5,Kamloops,,,,,,50.651407,-120.368398,Accommodation,20181201072117,,https://www.facebook.com/Four-Points-by-Sheraton-Kamloops-129280637133419/?fref=ts,4540336,Thompson Okanagan, ,,2621,1397575.924000001,642092.2130000005
Destination BC,accommodationServices,Accommodation services,HelloBC Accomodations Listing,1479,Fairmont Hotel Vancouver,Hotels & Motels;,"900 W Georgia St, Vancouver, BC",900 W Georgia St,900 W Georgia St,V6C2W6,Vancouver,,,,www.fairmont.com/hotelvancouver,,49.283896,-123.120207,Accommodation,20181201072117,,http://www.facebook.com/fairmonthotelvancouver,4539818,Vancouver Coast and Mountains,http://twitter.com/FairmontVan,,2955,1209649.6769999992,478437.1640000008
Destination BC,accommodationServices,Accommodation services,HelloBC Accomodations Listing,1480,The Inn at the Ninth Hole,Bed & Breakfasts;,"5091 - 20th Ave SE, Salmon Arm, BC",5091 - 20th Ave SE,5091 - 20th Ave SE,V1E1X6,Salmon Arm,,,,www.ninthhol.com,,50.6853653,-119.22637,Accommodation,20181201072116,,http://www.facebook.com/pages/The-inn-at-the-ninth-hole/490939440950826,4540746,Thompson Okanagan, ,,1955,1477613.4870000007,652917.7070000004
Destination BC,accommodationServices,Accommodation services,HelloBC Accomodations Listing,1481,Inn On The Creek,Hotels & Motels;,"10600 - 8th St, Dawson Creek, BC",10600 - 8th St,10600 - 8th St,V1G3R3,Dawson Creek,,,,,,55.7524773,-120.2243328,Accommodation,20181201072116,, ,4540316,Northern British Columbia, ,,1801,1361356.803,1209971.5580000011
Destination BC,accommodationServices,Accommodation services,HelloBC Accomodations Listing,1482,Wells Gray Golf Resort & RV Park,Campgrounds & RV Parks - Private;,"6624 Clearwater Valley Rd, Clearwater, BC",6624 Clearwater Valley Rd,6624 Clearwater Valley Rd,V0E1N1,Clearwater,,,,,,51.8993795,-120.0357187,Accommodation,20181201072117,, ,4540729,Thompson Okanagan, ,,3177,1409309.376,782543.1070000036
Destination BC,accommodationServices,Accommodation services,HelloBC Accomodations Listing,1483,Riverside Resort,Cabins & Cottages; Campgrounds & RV Parks - Private;,"8018 Mons Rd, Whistler, BC",8018 Mons Rd,8018 Mons Rd,V0N1B8,Whistler,,,,www.parkbridge.com,,50.133496,-122.95272,Accommodation,20181201072115,,https://www.facebook.com/riversidewhistler/,4540273,Vancouver Coast and Mountains, ,,1489,1217770.5429999996,573321.7090000007
Destination BC,accommodationServices,Accommodation services,HelloBC Accomodations Listing,1484,Bell 2 Lodge,Cabins & Cottages; Campgrounds & RV Parks - Private;,"Bell 2 Crossing, Hwy 37N, Bell II, BC","Bell 2 Crossing, Hwy 37N, Bell II, BC","Bell 2 Crossing, Hwy 37N",V0J3S0,Bell II,,,,,,56.7439881,-129.7957764,Accommodation,20181201072118,,https://www.facebook.com/LastFrontierHeli,4540308,Northern British Columbia,https://twitter.com/LastFrontHeli,,3917,768296.004000001,1312083.3709999975
Destination BC,accommodationServices,Accommodation services,HelloBC Accomodations Listing,1485,Steamboat Mountain Chalets,Cabins & Cottages;,"5011 Beaverfoot St, Spillimacheen, BC",5011 Beaverfoot St,5011 Beaverfoot St,V0A1P0,Spillimacheen,,,,www.steamboatchalets.com,,50.908013999999994,-116.366682,Accommodation,20181201072116,, ,4540346,Kootenay Rockies, ,,1651,1674829.1160000004,700826.2599999998
Destination BC,accommodationServices,Accommodation services,HelloBC Accomodations Listing,1486,Hilton Vancouver Airport,Hotels & Motels;,"5911 Minoru Blvd, Richmond, BC",5911 Minoru Blvd,5911 Minoru Blvd,V6X4C7,Richmond,,,,,,49.171617999999995,-123.14015,Accommodation,20181201072117,,https://www.facebook.com/HiltonYVR,4540421,Vancouver Coast and Mountains,https://twitter.com/HiltonYVR,,3219,1208702.4330000011,465913.72399999946
Destination BC,accommodationServices,Accommodation services,HelloBC Accomodations Listing,1487,Sandman Hotel - Vancouver Airport,Hotels & Motels;,"3233 St Edwards Dr, Richmond, BC",3233 St Edwards Dr,3233 St Edwards Dr,V6X3K4,Richmond,,,,www.sandmanhotels.com,,49.190531,-123.11234,Accommodation,20181201072117,,http://www.facebook.com/sandmanhotelgroup,4540390,Vancouver Coast and Mountains,http://twitter.com/sandmanhotels,,3207,1210645.1089999988,468095.5600000033
Destination BC,accommodationServices,Accommodation services,HelloBC Accomodations Listing,1488,Inn on Long Lake,Hotels & Motels;,"4700 Island Hwy N (19A), Nanaimo, BC",4700 Island Hwy N (19A),4700 Island Hwy N (19A),V9T1W6,Nanaimo,,,,www.innonlonglake.com,,49.2114344,-124.0266184,Accommodation,20181201072118,,http://www.facebook.com/InnOnLongLake,4541011,Vancouver Island,http://twitter.com/innonlonglake,,4279,1143908.1170000015,468127.07699999865
Destination BC,accommodationServices,Accommodation services,HelloBC Accomodations Listing,1489,Rowena's Inn on the River,Bed & Breakfasts; Cabins & Cottages;,"14282 Morris Valley Rd, Harrison Mills, BC",14282 Morris Valley Rd,14282 Morris Valley Rd,V0M1L0,Harrison Mills,,,,www.prettyestatesresort.com,,49.2507756,-121.9468689,Accommodation,20181201072117,,http://www.facebook.com/rowenasinnontheriver,4540566,Vancouver Coast and Mountains,http://twitter.com/RowenasInn,,3265,1295199.7520000006,478945.2579999985
Destination BC,accommodationServices,Accommodation services,HelloBC Accomodations Listing,1490,Ocean Trails Resort,Cabins & Cottages;,"1135 Resort Dr, Parksville, BC",1-1135 Resort Dr,1135 Resort Dr,V9P2T6,Parksville,,,,,,49.3085768,-124.263626,Accommodation,20181201072116,,http://www.facebook.com/pages/Ocean-Trails-Resort/117715021579281,4541108,Vancouver Island, ,,2791,1126363.41,478464.5879999995
Destination BC,accommodationServices,Accommodation services,HelloBC Accomodations Listing,1491,Best Western Austrian Chalet,Hotels & Motels;,"462 Island Hwy S, Campbell River, BC",462 Island Hwy S,462 Island Hwy S,V9W1A5,Campbell River,,,,http://www.bwcampbellriver.com,,49.984716,-125.224063,Accommodation,20181201072116,,https://www.facebook.com/bwcampbellriver,4541114,Vancouver Island,https://twitter.com/bwaustrian,,2169,1055648.907,552388.9630000005
Destination BC,accommodationServices,Accommodation services,HelloBC Accomodations Listing,1492,Carmana Plaza,Hotels & Motels;,"1128 Alberni St, Vancouver, BC",1128 Alberni St,1128 Alberni St,V6E4R6,Vancouver,,,,www.carmanaplaza.com,,49.285771,-123.124398,Accommodation,20181201072117,, ,4540203,Vancouver Coast and Mountains, ,,3615,1209336.2789999987,478632.93100000266
Destination BC,accommodationServices,Accommodation services,HelloBC Accomodations Listing,1493,Canyon Alpine Motel,Hotels & Motels;,"50530 Trans-Canada Hwy, Boston Bar, BC","50530 Trans-Canada Hwy, Boston Bar, BC",50530 Trans-Canada Hwy,V0K1C0,Boston Bar,,,,,,49.8819541,-121.4486865,Accommodation,20181201072118,, ,4539745,Vancouver Coast and Mountains, ,,4061,1326928.6099999999,551167.8920000019
Destination BC,accommodationServices,Accommodation services,HelloBC Accomodations Listing,1494,Coast Victoria Hotel & Marina by APA,Hotels & Motels;,"146 Kingston St, Victoria, BC",146 Kingston St,146 Kingston St,V8V1V4,Victoria,,,,http://www.coastvictoriaharbourside.com/,,48.421858,-123.3797,Accommodation,20181201072118,,https://www.facebook.com/coasthotels/,4541013,Vancouver Island,https://twitter.com/coasthotels,,3865,1194309.7989999996,382047.847000001
Destination BC,accommodationServices,Accommodation services,HelloBC Accomodations Listing,1495,The Burrard,Hotels & Motels;,"1100 Burrard St, Vancouver, BC",1100 Burrard St,1100 Burrard St,V6Z1Y7,Vancouver,,,,,,49.279548999999996,-123.128447,Accommodation,20181201072118,,http://www.facebook.com/theburrard,4539820,Vancouver Coast and Mountains,http://twitter.com/theburrard,,3369,1209069.7200000014,477930.1759999953
Destination BC,accommodationServices,Accommodation services,HelloBC Accomodations Listing,1496,Glacier House Hotel & Resort,Hotels & Motels; Cabins & Cottages;,"1870 Glacier Lane, Revelstoke, BC","1870 Glacier Lane, Revelstoke, BC",1870 Glacier Lane,V0E2S0,Revelstoke,,,,,,51.0490026,-118.2170105,Accommodation,20181201072117,,https://www.facebook.com/glacierhousehotel,4540313,Kootenay Rockies,https://twitter.com/glacierhouse,,3325,1544073.2029999997,700479.392
Destination BC,accommodationServices,Accommodation services,HelloBC Accomodations Listing,1497,Tete Jaune Lodge,Hotels & Motels; Cabins & Cottages; Campgrounds & RV Parks - Private;,"11957 L'Heureaux Rd, Tete Jaune Cache, BC","11957 L'Heureaux Rd, Tete Jaune Cache, BC",11957 L'Heureaux Rd,V0E2Z0,Tete Jaune Cache,,,,,,52.9767427,-119.4389498,Accommodation,20181201072116,,http://www.facebook.com/theoriginaltetejaunelodge,4539420,Thompson Okanagan, ,,2433,1439032.914000001,905790.7529999996
Destination BC,accommodationServices,Accommodation services,HelloBC Accomodations Listing,1498,Days Inn & Conference Centre - Penticton,Hotels & Motels;,"152 Riverside Dr, Penticton, BC",152 Riverside Dr,152 Riverside Dr,V2A5Y4,Penticton,,,,,,49.498945,-119.612874,Accommodation,20181201072116,,https://www.facebook.com/DaysInnPenticton,4540548,Thompson Okanagan, ,,1953,1462328.5739999989,518942.1710000029
Destination BC,accommodationServices,Accommodation services,HelloBC Accomodations Listing,1499,A Whispering Cedars B&B,Bed & Breakfasts;,"9792A Gray Rd S, Bridal Falls, BC",9792A Gray Rd S,9792A Gray Rd S,V0X1X1,Bridal Falls,,,,www.whispering-cedars.com,,49.179587,-121.761089,Accommodation,20181201072117,,http://www.facebook.com/whisperingcedars,4540123,Vancouver Coast and Mountains,http://twitter.com/awhispering,,3059,1309188.0669999998,471842.53200000245
Destination BC,accommodationServices,Accommodation services,HelloBC Accomodations Listing,1500,Alexandria House B&B,Bed & Breakfasts;,"2462 Alexandria Way, West Kelowna, BC",2462 Alexandria Way,2462 Alexandria Way,V4T1T6,West Kelowna,,,,,,49.854338999999996,-119.61938,Accommodation,20181201072117,, ,4540179,Thompson Okanagan, ,,3697,1458302.3970000003,558251.7399999956
Destination BC,accommodationServices,Accommodation services,HelloBC Accomodations Listing,1501,Sunshine Inn,Hotels & Motels;,"940 Hwy 16W, Burns Lake, BC","940 Hwy 16W, Burns Lake, BC",940 Hwy 16W,V0J1E0,Burns Lake,,,,www.sunshineinn.ca,,54.2426728,-125.7768917,Accommodation,20181201072117,,https://www.facebook.com/sunshineinnbc/,4540209,Northern British Columbia, ,,2887,1014505.4600000002,1026718.5079999985
Destination BC,accommodationServices,Accommodation services,HelloBC Accomodations Listing,1502,Chinook Lodge,Vacation Rentals;,"2042 Maple Cres, Masset, BC",908 Ladner St,2042 Maple Cres,V0T1M0,Masset,,,,,,54.0131931,-132.1482719,Accommodation,20181201072116,,https://www.facebook.com/Chinook-Lodge-583210601697628/,4540171,Northern British Columbia, ,,2439,598548.0820000013,1018527.0830000052
Destination BC,accommodationServices,Accommodation services,HelloBC Accomodations Listing,1503,Anchor Inn & Suites Campbell River,Hotels & Motels;,"261 Island Hwy, Campbell River, BC",261 Island Hwy,261 Island Hwy,V9W2B3,Campbell River,,,,,,50.0122468,-125.2341002,Accommodation,20181201072117,,https://www.facebook.com/261Islandhwy/,4540508,Vancouver Island, ,,2965,1054895.9549999996,555443.1619999995
Destination BC,accommodationServices,Accommodation services,HelloBC Accomodations Listing,1504,Whitley House B&B,Bed & Breakfasts;,"478 Village Way, Qualicum Beach, BC",478 Village Way,478 Village Way,V9K1M1,Qualicum Beach,,,,www.whitleyhouse.com,,49.348805,-124.422524,Accommodation,20181201072116,,http://www.facebook.com/whitleyhouseqb,4540146,Vancouver Island,http://www.twitter.com/whitleyhouse,,1649,1114702.1250000007,482663.09800000116
Destination BC,accommodationServices,Accommodation services,HelloBC Accomodations Listing,1505,Chilcotin's Waterfront Resort & Motel,Hotels & Motels; Cabins & Cottages; Campgrounds & RV Parks - Private;,"1874 Otter Rd, Nimpo Lake, BC","1874 Otter Rd, Nimpo Lake, BC",1874 Otter Rd,V0L1R0,Nimpo Lake,,,,www.nimpolakewaterfrontresort.com,,52.339959,-125.15075,Accommodation,20181201072117,, ,4540140,Cariboo Chilcotin Coast, ,,3627,1057759.6559999995,814755.8189999955
Destination BC,accommodationServices,Accommodation services,HelloBC Accomodations Listing,1506,Magnolia Hotel & Spa,Hotels & Motels;,"623 Courtney St, Victoria, BC",623 Courtney St,623 Courtney St,V8W1B8,Victoria,,,,www.magnoliahotel.com,,48.423353,-123.366071,Accommodation,20181201072116,,http://www.facebook.com/MagnoliaHotelVictoria,4540416,Vancouver Island,https://twitter.com/MagnoliaHtl,,1729,1195313.8290000006,382251.1270000003
Destination BC,accommodationServices,Accommodation services,HelloBC Accomodations Listing,1507,Esther's Inn,Hotels & Motels;,"1151 Commercial Cres, Prince George, BC",1151 Commercial Cres,1151 Commercial Cres,V2M6W6,Prince George,,,,www.esthersinn.com,,53.914311999999995,-122.783778,Accommodation,20181201072116,,http://www.facebook.com/EsthersInn,4539499,Northern British Columbia,http://www.twitter.com/esthersinn,,1821,1210696.5960000013,994834.3350000018
Destination BC,accommodationServices,Accommodation services,HelloBC Accomodations Listing,1508,Big Creek Lodge,Resorts; Cabins & Cottages;,"7793 Witte Rd, Williams Lake, BC","7793 Witte Rd, Williams Lake, BC",7793 Witte Rd,V0L1K0,Williams Lake,,,,,,51.5523128,-123.0750275,Accommodation,20181201072117,,https://www.facebook.com/pages/Big-Creek-Lodge-Guest-Ranch/370680052960121,4540159,Cariboo Chilcotin Coast,https://twitter.com/BigCrkLodge,,2649,1202509.6389999997,730794.7810000004
Destination BC,accommodationServices,Accommodation services,HelloBC Accomodations Listing,1509,REO Rafting Resort,Cabins & Cottages;,"61755 Nahatlatch Forest Service Rd, Boston Bar, BC",1611 Stoneridge Lane,61755 Nahatlatch Forest Service Rd,V0K1C0,Boston Bar,,,,www.reorafting.com,,49.9881539,-121.5408437,Accommodation,20181201072117,,https://www.facebook.com/reorafting,4540902,Vancouver Coast and Mountains,http://twitter.com/reorafting,,3203,1319574.141000001,562534.6389999976
Destination BC,accommodationServices,Accommodation services,HelloBC Accomodations Listing,1510,Othello Tunnels Campground & RV Park,Campgrounds & RV Parks - Private;,"67851 Othello Rd, Hope, BC",67851 Othello Rd,67851 Othello Rd,V0X1L1,Hope,,,,,,49.3805987,-121.3535964,Accommodation,20181201072116,, ,4541178,Vancouver Coast and Mountains, ,,2435,1337405.0180000004,495994.99499999266
Destination BC,accommodationServices,Accommodation services,HelloBC Accomodations Listing,1511,Riverfront Park,Campgrounds & RV Parks - Private;,"5th Ave, Midway, BC","5th Ave, Midway, BC",5th Ave,V0H1M0,Midway,,,,,,49.0060485,-118.7756823,Accommodation,20181201072118,, ,4540194,Thompson Okanagan, ,,3793,1528309.1230000006,470286.1599999992
Destination BC,accommodationServices,Accommodation services,HelloBC Accomodations Listing,1512,Alder Bay Resort,Campgrounds & RV Parks - Private;,"1 Alder Bay Dr, Port McNeill, BC","1 Alder Bay Dr, Port McNeill, BC",1 Alder Bay Dr,V0N2R0,Port McNeill,,,,,,50.5592511,-126.9104576,Accommodation,20181201072116,, ,4539966,Vancouver Island, ,,2485,935526.1469999999,616426.2369999988
Destination BC,accommodationServices,Accommodation services,HelloBC Accomodations Listing,1513,Shoreline Resort,Cabins & Cottages;,"3664 Hwy 97, Lac La Hache, BC",3664 Hwy 97,3664 Hwy 97,V0K1T1,Lac La Hache,,,,,,51.8459355,-121.601888,Accommodation,20181201072116,, ,4541142,Cariboo Chilcotin Coast, ,,2515,1302361.1,768728.9729999928
Destination BC,accommodationServices,Accommodation services,HelloBC Accomodations Listing,1514,The White Horse B&B,Bed & Breakfasts;,"3800 Hwy 3E, Osoyoos, BC",3800 Hwy 3E,3800 Hwy 3E,V0H1V6,Osoyoos,,,,,,49.0926422,-119.5574469,Accommodation,20181201072118,, ,4540177,Thompson Okanagan, ,,3911,1470432.649,474345.2870000014
Destination BC,accommodationServices,Accommodation services,HelloBC Accomodations Listing,1515,Mary's Motel,Hotels & Motels;,"603 8th Ave N, Golden, BC","603 8th Ave N, Golden, BC",603 8th Ave N,V0A1H0,Golden,,,,,,51.30088,-116.9688523,Accommodation,20181201072116,, ,4539670,Kootenay Rockies, ,,2337,1627315.8539999998,738665.6200000001
Destination BC,accommodationServices,Accommodation services,HelloBC Accomodations Listing,1516,Ripley Creek Inn,Hotels & Motels;,"306 - 5th Ave, Stewart, BC","306 - 5th Ave, Stewart, BC",306 - 5th Ave,V0T1W0,Stewart,,,,ripleycreekinn.com,,52.8812158,-127.7376901,Accommodation,20181201072116,, ,4540119,Northern British Columbia, ,,2763,883305.9169999997,876207.2449999973
Destination BC,accommodationServices,Accommodation services,HelloBC Accomodations Listing,1517,Best Western King George Inn & Suites,Hotels & Motels;,"8033 King George Blvd, Surrey, BC",8033 King George Blvd,8033 King George Blvd,V3W5B4,Surrey,,,,,,49.148851,-122.845731,Accommodation,20181201072117,,http://www.facebook.com/BWKingGeorgeInn,4540136,Vancouver Coast and Mountains, ,,2611,1230287.2660000005,464299.5769999949
Destination BC,accommodationServices,Accommodation services,HelloBC Accomodations Listing,1518,Fox Hollow B&B,Bed & Breakfasts;,"6770 Cathedral Crt, Prince George, BC",6770 Cathedral Crt,6770 Cathedral Crt,V2N6R4,Prince George,,,,,,53.859666,-122.796083,Accommodation,20181201072117,, ,4540197,Northern British Columbia, ,,3513,1210166.9609999992,988705.3469999963
Destination BC,accommodationServices,Accommodation services,HelloBC Accomodations Listing,1519,Arbutus Cove Guesthouse & Cottage,Bed & Breakfasts;,"3018 Manzer Rd, Sooke, BC",3018 Manzer Rd,3018 Manzer Rd,V9Z0C9,Sooke,,,,,,48.389525,-123.634968,Accommodation,20181201072118,, ,4540187,Vancouver Island, ,,3839,1175507.5170000007,377795.6559999995
Destination BC,accommodationServices,Accommodation services,HelloBC Accomodations Listing,1520,The Plaza Hotel,Hotels & Motels;,"405 Victoria St, Kamloops, BC",405 Victoria St,405 Victoria St,V2C2A9,Kamloops,,,,www.theplazahotel.ca,,50.6758646,-120.3318003,Accommodation,20181201072117,,https://www.facebook.com/pages/The-Plaza-Hotel-Kamloops/132123826858865,4540248,Thompson Okanagan,https://twitter.com/plazakamloops,,3511,1399936.3489999995,645012.3759999992
Destination BC,accommodationServices,Accommodation services,HelloBC Accomodations Listing,1521,Lakeshore B&B,Bed & Breakfasts;,"4186 Lakeshore Rd, Kelowna, BC",4186 Lakeshore Rd,4186 Lakeshore Rd,V1W1V9,Kelowna,,,,www.Lakeshorebb.ca,,49.8331039,-119.4866824,Accommodation,20181201072117,, ,4540188,Thompson Okanagan, ,,3289,1468024.0299999986,556768.2580000022
Destination BC,accommodationServices,Accommodation services,HelloBC Accomodations Listing,1522,Long Beach Lodge Resort,Resorts; Cabins & Cottages;,"1441 Pacific Rim Hwy, Tofino, BC","1441 Pacific Rim Hwy, Tofino, BC",1441 Pacific Rim Hwy,V0R2Z0,Tofino,,,,www.longbeachlodgeresort.com,,49.1043875,-125.8709192,Accommodation,20181201072118,,http://www.facebook.com/tofinobc,4540117,Vancouver Island,http://twitter.com/greatroom,,3955,1009436.0670000003,454237.4790000059
Destination BC,accommodationServices,Accommodation services,HelloBC Accomodations Listing,1523,Charlie Lake RV & Leisure,Campgrounds & RV Parks - Private;,"12816 Nielson Ave, Mile 52, Alaska Hwy, Fort St. John, BC","12816 Nielson Ave, Mile 52, Alaska Hwy, Fort St. John, BC","12816 Nielson Ave, Mile 52, Alaska Hwy",V0C1H0,Fort St. John,,,,,,56.2470832,-120.8764484,Accommodation,20181201072117,, ,4539441,Northern British Columbia, ,,3095,1316641.058,1261887.0990000004
Destination BC,accommodationServices,Accommodation services,HelloBC Accomodations Listing,1524,Spring Lake Ranch,Bed & Breakfasts; Cabins & Cottages;,"5770 Spring Lake Rd, 100 Mile House, BC","5770 Spring Lake Rd, 100 Mile House, BC",5770 Spring Lake Rd,V0K2E0,100 Mile House,,,,,,51.81022,-121.2252903,Accommodation,20181201072116,,https://www.facebook.com/pages/Spring-Lake-Ranch/472209015500,4540363,Cariboo Chilcotin Coast, ,,1555,1328481.9839999992,766434.4809999978
Destination BC,accommodationServices,Accommodation services,HelloBC Accomodations Listing,1525,Telegraph Cove Marina & RV Park,Hotels & Motels; Campgrounds & RV Parks - Private;,"1642 Telegraph Cove Rd, Telegraph Cove, BC",1642B Telegraph Cove Rd,1642 Telegraph Cove Rd,V0N3J0,Telegraph Cove,,,,www.telegraphcove.ca,,49.6241247,-124.0186544,Accommodation,20181201072116,, ,4540208,Vancouver Island, ,,1793,1143205.2090000014,513990.6979999989
Destination BC,accommodationServices,Accommodation services,HelloBC Accomodations Listing,1526,Greenwood Country Inn B&B,Bed & Breakfasts;,"1371 Greenwood St, Pemberton, BC","1371 Greenwood St, Pemberton, BC",1371 Greenwood St,V0N2L0,Pemberton,,,,,,50.3238936,-122.8090748,Accommodation,20181201072118,,https://www.facebook.com/GreenwoodCountryInn,4540151,Vancouver Coast and Mountains, ,,3887,1227074.6479999996,594936.6159999985
Destination BC,accommodationServices,Accommodation services,HelloBC Accomodations Listing,1527,Straitview Ridge B&B,Bed & Breakfasts;,"4532 Otter Pt Rd, Sooke, BC",4532 Otter Pt Rd,4532 Otter Pt Rd,V9Z0K4,Sooke,,,,,,48.3781455,-123.7236929,Accommodation,20181201072118,, ,4540261,Vancouver Island, ,,4151,1168966.2050000005,376317.84899999853
Destination BC,accommodationServices,Accommodation services,HelloBC Accomodations Listing,1528,Eagle Campground & RV Park,Campgrounds & RV Parks - Private;,"1 - 3169 10th Ave, Keremeos, BC",1 - 3169 10th Ave,1 - 3169 10th Ave,V0X1N1,Keremeos,,,,,,49.2054486,-119.8607111,Accommodation,20181201072118,, ,4540472,Thompson Okanagan, ,,4007,1447259.888,484862.1799999997
Destination BC,accommodationServices,Accommodation services,HelloBC Accomodations Listing,1529,Ty Collwyn Waterfront Retreat,Cabins & Cottages;,"6615 Sooke Rd, Sooke, BC",6615 Sooke Rd,6615 Sooke Rd,V9Z0A7,Sooke,,,,,,48.378789,-123.718552,Accommodation,20181201072118,, ,4539336,Vancouver Island, ,,4147,1169345.371999999,376401.49799999874
Destination BC,accommodationServices,Accommodation services,HelloBC Accomodations Listing,1530,Beacon Inn at Sidney,Hotels & Motels;,"9724 3rd St, Sidney, BC",9724 3rd St,9724 3rd St,V8L3A2,Sidney,,,,thebeaconinn.com,,48.647189999999995,-123.3978,Accommodation,20181201072117,, ,4539329,Vancouver Island, ,,2869,1192049.1379999998,406989.5250000004
Destination BC,accommodationServices,Accommodation services,HelloBC Accomodations Listing,1531,An Inn For Two,Cabins & Cottages;,"784 Applegrove Rd, Fauquier, BC","784 Applegrove Rd, Fauquier, BC",784 Applegrove Rd,V0G1K0,Fauquier,,,,,,49.7470886,-118.1132319,Accommodation,20181201072117,, ,4539366,Kootenay Rockies, ,,3335,1567405.8190000001,557297.2220000001
Destination BC,accommodationServices,Accommodation services,HelloBC Accomodations Listing,1532,The Loghouse At Halfmoon Bay B&B,Bed & Breakfasts;,"5635 Mintie Rd, Halfmoon Bay, BC",5635 Mintie Rd,5635 Mintie Rd,V0N1Y2,Halfmoon Bay,,,,www.loghouse-halfmoonbay.com,,49.5115844,-123.9104819,Accommodation,20181201072116,, ,4539341,Vancouver Coast and Mountains, ,,1989,1151390.5560000003,501710.7369999923
Destination BC,accommodationServices,Accommodation services,HelloBC Accomodations Listing,1533,Halcyon Hot Springs Village & Spa,Resorts; Vacation Rentals; Cabins & Cottages; Campgrounds & RV Parks - Private;,"5655 Hwy 23, Nakusp, BC","5655 Hwy 23, Nakusp, BC",5655 Hwy 23,V0G1R0,Nakusp,,,,,,50.5182293,-117.9018402,Accommodation,20181201072116,,https://www.facebook.com/pages/Halcyon-Hot-Springs-Village-and-Spa/125613977479135,4540388,Kootenay Rockies,http://twitter.com/HalcyonHS,,1635,1572756.4299999992,644241.3819999984
Destination BC,accommodationServices,Accommodation services,HelloBC Accomodations Listing,1534,Accent Inn - Kamloops,Hotels & Motels;,"1325 Columbia St W, Kamloops, BC",200 - 3271 Maple St,1325 Columbia St W,V2C6P4,Kamloops,,,,,,50.666163,-120.35413299999999,Accommodation,20181201072116,,https://www.facebook.com/AccentInn?ref=nf,4541009,Thompson Okanagan,http://twitter.com/accentinns,,2335,1398449.9919999999,643809.8760000002
Destination BC,accommodationServices,Accommodation services,HelloBC Accomodations Listing,1535,Mica Mountain Lodge & Log Cabins,Cabins & Cottages;,"15658 Old Tete Jaune Rd, Tete Jaune Cache, BC","15658 Old Tete Jaune Rd, Tete Jaune Cache, BC",15658 Old Tete Jaune Rd,V0E2Z0,Tete Jaune Cache,,,,,,52.9539717,-119.4206667,Accommodation,20181201072118,,https://www.facebook.com/MicaMountainLodge,4540366,Thompson Okanagan, ,,4071,1440488.5540000002,903375.0519999936
Destination BC,accommodationServices,Accommodation services,HelloBC Accomodations Listing,1536,Hampton Inn by Hilton Kamloops,Hotels & Motels;,"1245 Rogers Way, Kamloops, BC",1245 Rogers Way,1245 Rogers Way,V1S1R9,Kamloops,,,,,,50.651371,-120.372087,Accommodation,20181201072116,,https://www.facebook.com/pages/Hampton-Inn-by-Hilton-Kamloops/180767468648835,4540124,Thompson Okanagan, ,,2181,1397316.357999999,642067.5070000049
Destination BC,accommodationServices,Accommodation services,HelloBC Accomodations Listing,1537,Sun Peaks Grand Hotel & Conference Centre,Hotels & Motels;,"3240 Village Way, Sun Peaks Resort, BC",3240 Village Way,3240 Village Way,V0E5N0,Sun Peaks Resort,,,,,,50.884822,-119.88076699999999,Accommodation,20181201072117,,https://www.facebook.com/sunpeaksgrand,4540143,Thompson Okanagan,https://twitter.com/sunpeaksgrand,,2871,1429675.4379999998,670839.6700000009
Destination BC,accommodationServices,Accommodation services,HelloBC Accomodations Listing,1538,Cathedral Mountain Lodge,Resorts; Cabins & Cottages;,"Yoho Valley Rd, Field, BC","Yoho Valley Rd, Field, BC",Yoho Valley Rd,V0A1G0,Field,,,,,,51.4627924,-116.44325,Accommodation,20181201072118,,http://www.facebook.com/cathedralmountainlodge,4539676,Kootenay Rockies, ,,3789,1661181.1909999996,761332.6690000016
Destination BC,accommodationServices,Accommodation services,HelloBC Accomodations Listing,1539,Coast Chilliwack Hotel,Hotels & Motels;,"45920 First Ave, Chilliwack, BC",45920 First Ave,45920 First Ave,V2P7K1,Chilliwack,,,,,,49.1678,-121.9543,Accommodation,20181201072118,,https://www.facebook.com/coasthotels,4540990,Vancouver Coast and Mountains,https://twitter.com/coasthotels,,3975,1295185.678999999,469710.5190000003
Destination BC,accommodationServices,Accommodation services,HelloBC Accomodations Listing,1540,Manteo Resort Waterfront Hotel & Villas,Hotels & Motels;,"3762 Lakeshore Rd, Kelowna, BC",3762 Lakeshore Rd,3762 Lakeshore Rd,V1W3L4,Kelowna,,,,,,49.849197,-119.486266,Accommodation,20181201072118,,https://www.facebook.com/ManteoResort,4540666,Thompson Okanagan,https://www.twitter.com/ManteoResort,,3963,1467889.4299999997,558553.0720000006
Destination BC,accommodationServices,Accommodation services,HelloBC Accomodations Listing,1541,Rochester Resort,Hotels & Motels;,"970 Lakeshore Dr W, Penticton, BC",970 Lakeshore Dr W,970 Lakeshore Dr W,V2A1C1,Penticton,,,,,,49.501428,-119.608379,Accommodation,20181201072116,, ,4539577,Thompson Okanagan, ,,2215,1462628.174000001,519246.4009999968
Destination BC,accommodationServices,Accommodation services,HelloBC Accomodations Listing,1542,Northern Grand Hotel,Hotels & Motels;,"9830-100th Ave, Fort St. John, BC",9830-100th Ave,9830-100th Ave,V1J1Y5,Fort St. John,,,,,,56.2464815,-120.8445426,Accommodation,20181201072116,,https://www.facebook.com/Northern-Grand-Hotel-851881141566615/,4539512,Northern British Columbia, ,,1691,1318614.2809999997,1261963.2780000009
Destination BC,accommodationServices,Accommodation services,HelloBC Accomodations Listing,1543,Bear Cove Cottages,Cabins & Cottages;,"6715 Bear Cove Hwy, Port Hardy, BC","6715 Bear Cove Hwy, Port Hardy, BC",6715 Bear Cove Hwy,V0N2P0,Port Hardy,,,,,,50.7262099,-127.501723,Accommodation,20181201072116,,https://www.facebook.com/BearCoveCottagesFishingDestination/,4539334,Vancouver Island, ,,2025,894055.0989999993,635721.2400000012
Destination BC,accommodationServices,Accommodation services,HelloBC Accomodations Listing,1544,Cornerstone Lodge at Fernie Alpine Resort,Hotels & Motels;,"5339 Ski Hill Rd, Fernie Alpine Resort, BC","5339 Ski Hill Rd, Fernie Alpine Resort, BC",5339 Ski Hill Rd,V0B1M6,Fernie Alpine Resort,,,,,,49.4640724,-115.0856781,Accommodation,20181201072116,,https://www.facebook.com/cornerstonelodgefernie,4539233,Kootenay Rockies, ,,2273,1788564.8939999985,555104.5610000007
Destination BC,accommodationServices,Accommodation services,HelloBC Accomodations Listing,1545,Huckleberry Inn,Bed & Breakfasts;,"1050 Hot Springs Rd, Nakusp, BC",1050 Hot Springs Road,1050 Hot Springs Rd,V0G1R0,Nakusp,,,,www.huckinn.com,,50.2576597,-117.8157949,Accommodation,20181201072117,,http://www.facebook.com/huckleberryinn1050,4539259,Kootenay Rockies, ,,3009,1582160.0660000006,616137.2699999921
Destination BC,accommodationServices,Accommodation services,HelloBC Accomodations Listing,1546,Fernie Slopeside Lodge - by Fernie Alpine Resort,Hotels & Motels;,"5339 Ski Hill Rd, Fernie Alpine Resort, BC",1505 - 17 Ave SW,5339 Ski Hill Rd,V0B1M6,Fernie Alpine Resort,,,,www.skircr.com,,49.4634298,-115.08223,Accommodation,20181201072117,,https://www.facebook.com/FernieAlpineResort,4540023,Kootenay Rockies,https://twitter.com/SkiFernie,,3105,1788823.0139999997,555072.4020000026
Destination BC,accommodationServices,Accommodation services,HelloBC Accomodations Listing,1547,White Grizzly Snowcat Lodge,Resorts;,"110 Duncan Dam Haul Rd, Meadow Creek, BC","110 Duncan Dam Haul Rd, Meadow Creek, BC",110 Duncan Dam Haul Rd,V0G1N0,Meadow Creek,,,,,,50.2441312,-116.9700623,Accommodation,20181201072117,,https://www.facebook.com/WhiteGrizzlyCatski,4540258,Kootenay Rockies, ,,3113,1642199.0999999996,621956.740000003
Destination BC,accommodationServices,Accommodation services,HelloBC Accomodations Listing,1548,Delta Hotels Vancouver Downtown Suites,Hotels & Motels;,"550 Hastings St W, Vancouver, BC",550 Hastings St W,550 Hastings St W,V6B1L6,Vancouver,,,,www.deltahotels.com,,49.284333,-123.11232,Accommodation,20181201072117,,http://www.facebook.com/deltavancouversuites,4540702,Vancouver Coast and Mountains,http://twitter.com/deltavancouver,,3013,1210221.5549999992,478509.07000000216
Destination BC,accommodationServices,Accommodation services,HelloBC Accomodations Listing,1549,Radisson Hotel Vancouver Airport,Hotels & Motels;,"8181 Cambie Rd, Richmond, BC",8181 Cambie Rd,8181 Cambie Rd,V6X3X9,Richmond,,,,,,49.1847258,-123.133443,Accommodation,20181201072118,,http://www.facebook.com/RadissonVanAir,4540913,Vancouver Coast and Mountains,http://www.twitter.com/RadissonYVR,,4327,1209132.6689999998,467388.5719999997
Destination BC,accommodationServices,Accommodation services,HelloBC Accomodations Listing,1550,Fairmont Vancouver Airport,Hotels & Motels;,"3111 Grant McConachie Way, Richmond, BC",3311 Grant McConachie Way,3111 Grant McConachie Way,V7B0A6,Richmond,,,,http://www.fairmont.com/vancouverairport,,49.194451,-123.174986,Accommodation,20181201072117,,http://www.facebook.com/fairmontvanairport,4540306,Vancouver Coast and Mountains,https://twitter.com/FairmontYVR,,3587,1206060.3709999984,468346.3400000045
Destination BC,accommodationServices,Accommodation services,HelloBC Accomodations Listing,1551,Comfort Inn Downtown Vancouver,Hotels & Motels;,"654 Nelson St, Vancouver, BC",654 Nelson St,654 Nelson St,V6B6K4,Vancouver,,,,www.comfortinndowntown.com,,49.278988,-123.122473,Accommodation,20181201072117,,https://www.facebook.com/ComfortInnDowntown,4541057,Vancouver Coast and Mountains,https://twitter.com/comfortinn_dt,,3153,1209506.9639999995,477885.5529999975
Destination BC,accommodationServices,Accommodation services,HelloBC Accomodations Listing,1552,Holiday Inn Hotel & Suites North Vancouver,Hotels & Motels;,"700 Old Lillooet Rd, North Vancouver, BC",700 Old Lillooet Rd,700 Old Lillooet Rd,V7J2H5,North Vancouver,,,,www.hinorthvancouver.com,,49.313384,-123.027384,Accommodation,20181201072118,,http://www.facebook.com/HolidayInnNorthVancouver,4540418,Vancouver Coast and Mountains,http://twitter.com/HolidayInnNVan,,4063,1216265.7559999998,481990.2440000018
Destination BC,accommodationServices,Accommodation services,HelloBC Accomodations Listing,1553,Opus Hotel Vancouver,Hotels & Motels;,"322 Davie St, Vancouver, BC",322 Davie St,322 Davie St,V6B5Z6,Vancouver,,,,www.opushotel.com,,49.2749508,-123.1228295,Accommodation,20181201072117,,http://www.facebook.com/opushotelvancouver,4540130,Vancouver Coast and Mountains,https://twitter.com/opushotel,,2899,1209499.2489999998,477436.27799999993
Destination BC,accommodationServices,Accommodation services,HelloBC Accomodations Listing,1554,Rosellen Suites at Stanley Park,Hotels & Motels;,"2030 Barclay St, Vancouver, BC",2030 Barclay St,2030 Barclay St,V6G1L5,Vancouver,,,,,,49.292308999999996,-123.141027,Accommodation,20181201072117,,https://www.facebook.com/RosellenSuites,4540349,Vancouver Coast and Mountains, ,,3107,1208097.0600000005,479309.7860000003
Destination BC,accommodationServices,Accommodation services,HelloBC Accomodations Listing,1555,Accent Inn - Vancouver Airport,Hotels & Motels;,"10551 St Edwards Dr, Richmond, BC",200 - 3271 Maple St,10551 St Edwards Dr,V6X3L8,Richmond,,,,,,49.187633999999996,-123.11178100000001,Accommodation,20181201072116,,http://www.facebook.com/AccentInn,4540565,Vancouver Coast and Mountains,http://twitter.com/accentinns,,2705,1210698.991,467775.6360000018
Destination BC,accommodationServices,Accommodation services,HelloBC Accomodations Listing,1556,Accent Inn - Burnaby,Hotels & Motels;,"3777 Henning Dr, Burnaby, BC",2925 Douglas St,3777 Henning Dr,V5C6N5,Burnaby,,,,,,49.263807,-123.021522,Accommodation,20181201072116,,http://www.facebook.com/AccentInn,4540771,Vancouver Coast and Mountains,http://twitter.com/accentinns,,1621,1216923.688999999,476504.2339999983
Destination BC,accommodationServices,Accommodation services,HelloBC Accomodations Listing,1557,Vancouver Airport Marriott,Hotels & Motels;,"7571 Westminster Hwy, Richmond, BC",7571 Westminster Hwy,7571 Westminster Hwy,V6X1A3,Richmond,,,,,,49.170369,-123.1406772,Accommodation,20181201072118,,https://www.facebook.com/MarriottYVR,4540386,Vancouver Coast and Mountains,http://twitter.com/marriottyvr,,4127,1208669.5830000003,465773.52499999944
Destination BC,accommodationServices,Accommodation services,HelloBC Accomodations Listing,1558,Windsor Guest House,Bed & Breakfasts;,"325 W 11th Ave, Vancouver, BC",464 W 13th Ave,325 W 11th Ave,V5Y1T3,Vancouver,,,,,,49.261379999999996,-123.111543,Accommodation,20181201072117,,https://www.facebook.com/WindsorGuestHouseVancouver/,4540804,Vancouver Coast and Mountains, ,,3755,1210382.1210000003,475963.1099999985
Destination BC,accommodationServices,Accommodation services,HelloBC Accomodations Listing,1559,Fairmont Empress,Hotels & Motels;,"721 Government St, Victoria, BC",721 Government St,721 Government St,V8W1W5,Victoria,,,,www.fairmont.com/empress,,48.421143,-123.368714,Accommodation,20181201072117,,http://www.facebook.com/fairmontempress,4539929,Vancouver Island,http://www.twitter.com/fairmontempress,,3127,1195127.0449999997,381998.7809999995
Destination BC,accommodationServices,Accommodation services,HelloBC Accomodations Listing,1560,Quality Inn Downtown Inner Harbour,Hotels & Motels;,"850 Blanshard St, Victoria, BC",850 Blanshard St,850 Blanshard St,V8W2H2,Victoria,,,,,,48.422352,-123.362967,Accommodation,20181201072116,,https://www.facebook.com/qualityvictoria,4539934,Vancouver Island, ,,2531,1195548.0299999996,382148.6989999972
Destination BC,accommodationServices,Accommodation services,HelloBC Accomodations Listing,1561,Paul's Motor Inn,Hotels & Motels;,"1900 Douglas St, Victoria, BC",1900 Douglas St,1900 Douglas St,V8T4K8,Victoria,,,,www.paulsmotorinn.com,,48.431315,-123.36452,Accommodation,20181201072117,,https://www.facebook.com/Paulsmotorinn,4539937,Vancouver Island,http://twitter.com/paulsmotorinn,,3273,1195395.9039999999,383138.285000002
Destination BC,accommodationServices,Accommodation services,HelloBC Accomodations Listing,1562,Abbeymoore Manor B&B Inn,Bed & Breakfasts;,"1470 Rockland Ave, Victoria, BC",1470 Rockland Ave,1470 Rockland Ave,V8S1W2,Victoria,,,,,,48.420024999999995,-123.33959,Accommodation,20181201072118,,http://www.facebook.com/Abbeymoore.Manor,4540490,Vancouver Island,http://twitter.com/InnkeeperIan,,4261,1197290.43,381955.53299999516
Destination BC,accommodationServices,Accommodation services,HelloBC Accomodations Listing,1563,Spinnakers Gastro Brewpub & Guesthouses,Hotels & Motels;,"308 Catherine St, Victoria, BC",308 Catherine St,308 Catherine St,V9A3S8,Victoria,,,,http://www.spinnakers.com/guesthouses,,48.429567999999996,-123.38463,Accommodation,20181201072116,,https://www.facebook.com/spinnakersbrewpub/,4540320,Vancouver Island,https://twitter.com/Spinnakers,,1511,1193912.7789999987,382889.26899999846
Destination BC,accommodationServices,Accommodation services,HelloBC Accomodations Listing,1564,Accent Inn - Victoria,Hotels & Motels;,"3233 Maple St, Victoria, BC",2925 Douglas St,3233 Maple St,V8X4Y9,Victoria,,,,,,48.450696,-123.368726,Accommodation,20181201072116,,http://www.facebook.com/AccentInn,4541095,Vancouver Island,http://twitter.com/accentinns,,1765,1195004.2930000008,385275.82999999356
Destination BC,accommodationServices,Accommodation services,HelloBC Accomodations Listing,1565,Brierwood B&B,Bed & Breakfasts;,"5836 Brier Ave, Duncan, BC",5836 Brier Ave,5836 Brier Ave,V9L3E2,Duncan,,,,brierwoodbb.com,,48.782553,-123.678359,Accommodation,20181201072118,, ,4540255,Vancouver Island, ,,4241,1170858.2819999987,421288.8390000034
Destination BC,accommodationServices,Accommodation services,HelloBC Accomodations Listing,1566,Ocean Resort,Hotels & Motels;,"4384 Island Hwy S, Campbell River, BC",4384 Island Hwy S,4384 Island Hwy S,V9H1E8,Campbell River,,,,,,49.8925955,-125.1369596,Accommodation,20181201072115,,https://www.facebook.com/VIwellness,4539837,Vancouver Island, ,,1677,1062020.4279999991,542216.410000002
Destination BC,accommodationServices,Accommodation services,HelloBC Accomodations Listing,1567,Pan Pacific Whistler Mountainside,Hotels & Motels;,"4320 Sundial Cres, Whistler, BC",4320 Sundial Cres,4320 Sundial Cres,V0N1B4,Whistler,,,,,,50.1139406,-122.9532766,Accommodation,20181201072117,,https://www.facebook.com/PanPacificWhistler,4540669,Vancouver Coast and Mountains,https://twitter.com/PanPacificWhis,,2671,1217824.3900000006,571146.5240000058
Destination BC,accommodationServices,Accommodation services,HelloBC Accomodations Listing,1568,Summit Lodge Boutique Hotel,Hotels & Motels;,"4359 Main St, Whistler, BC",4359 Main St,4359 Main St,V0N1B4,Whistler,,,,www.summitlodge.com,,50.118434,-122.9577,Accommodation,20181201072118,,http://www.facebook.com/summit.lodge.whistler,4540499,Vancouver Coast and Mountains,https://twitter.com/whistlersummit,,3889,1217486.859999999,571632.3360000001
Destination BC,accommodationServices,Accommodation services,HelloBC Accomodations Listing,1569,Adara Hotel,Hotels & Motels;,"4122 Village Green, Whistler, BC",4122 Village Green,4122 Village Green,V0N1B4,Whistler,,,,www.adarahotel.com,,50.114118999999995,-122.956547,Accommodation,20181201072116,,https://www.facebook.com/AdaraHotel,4541061,Vancouver Coast and Mountains,https://twitter.com/AdaraHotel,,1703,1217589.865000001,571156.2950000009
Destination BC,accommodationServices,Accommodation services,HelloBC Accomodations Listing,1570,"The Westin Resort & Spa, Whistler",Hotels & Motels;,"4090 Whistler Way, Whistler, BC",4090 Whistler Way,4090 Whistler Way,V0N1B4,Whistler,,,,,,50.112977,-122.956759,Accommodation,20181201072117,,https://www.facebook.com/WestinWhistler,4540328,Vancouver Coast and Mountains,https://twitter.com/Westin_Whistler,,3509,1217580.1779999984,571028.7180000022
Destination BC,accommodationServices,Accommodation services,HelloBC Accomodations Listing,1571,Premier Creek Lodging,Hotels & Motels;,"3101 Oceanview Dr, Queen Charlotte City, BC","3101 Oceanview Dr, Queen Charlotte City, BC",3101 Oceanview Dr,V0T1S0,Queen Charlotte City,,,,,,53.2577683,-132.1031259,Accommodation,20181201072116,, ,4539446,Northern British Columbia, ,,2413,594229.9149999989,934285.6949999984
Destination BC,accommodationServices,Accommodation services,HelloBC Accomodations Listing,1572,Rosedale on Robson Suite Hotel,Hotels & Motels;,"838 Hamilton St, Vancouver, BC",838 Hamilton St,838 Hamilton St,V6B6A2,Vancouver,,,,,,49.2783745,-123.11623,Accommodation,20181201072116,,https://www.facebook.com/RosedaleOnRobson,4540910,Vancouver Coast and Mountains,http://twitter.com/RosedaleRobson,,1919,1209964.0289999985,477835.9369999962
Destination BC,accommodationServices,Accommodation services,HelloBC Accomodations Listing,1573,Executive Hotel Burnaby,Hotels & Motels;,"4201 Lougheed Hwy, Burnaby, BC",4201 Lougheed Hwy,4201 Lougheed Hwy,V5C3Y6,Burnaby,,,,www.executivehotels.net,,49.266414,-123.010672,Accommodation,20181201072116,,https://www.facebook.com/pages/Executive-Hotel-Burnaby/149462248418462,4540950,Vancouver Coast and Mountains, ,,2803,1217701.2020000003,476826.95299999975
Destination BC,accommodationServices,Accommodation services,HelloBC Accomodations Listing,1574,Alpenglow B&B,Bed & Breakfasts;,"3 Alpenglow Crt, Kimberley, BC",3 Alpenglow Crt,3 Alpenglow Crt,V1A3E3,Kimberley,,,,www.alpenglowbb.com,,49.683658,-115.988671,Accommodation,20181201072117,,https://www.facebook.com/pages/Alpenglow-Bed-and-Breakfast-Kimberley-BC-Canada/155369213949,4540284,Kootenay Rockies, ,,3209,1720338.068000001,569625.0949999979
Destination BC,accommodationServices,Accommodation services,HelloBC Accomodations Listing,1575,Whalers On The Point Guesthouse - Hostelling International Tofino,Hostels;,"81 West St, Tofino, BC","81 West St, Tofino, BC",81 West St,V0R2Z0,Tofino,,,,www.tofinohostel.com,,49.1540417,-125.9113333,Accommodation,20181201072116,,https://www.facebook.com/tofinohostel,4540125,Vancouver Island, ,,2695,1006474.8079999993,459748.98200000357
Destination BC,accommodationServices,Accommodation services,HelloBC Accomodations Listing,1576,Travelodge Quesnel,Hotels & Motels;,"524 Front St, Quesnel, BC",524 Front St,524 Front St,V2J2K6,Quesnel,,,,www.travelodgequesnel.com,,52.980885,-122.498678,Accommodation,20181201072117,, ,4540518,Cariboo Chilcotin Coast, ,,3551,1234508.3499999994,891693.799999998
Destination BC,accommodationServices,Accommodation services,HelloBC Accomodations Listing,1577,Wildhorse Mountain Ranch B&B,Bed & Breakfasts; Campgrounds & RV Parks - Private;,"25808 Wildhorse Rd, Summerland, BC",25808 Wildhorse Rd,25808 Wildhorse Rd,V0H1Z3,Summerland,,,,www.wildhorsemountainranch.com,,49.652355,-119.72133600000001,Accommodation,20181201072116,,https://www.facebook.com/pages/Wildhorse-Mountain-Guest-Ranch-BB/301216523232553,4539919,Thompson Okanagan, ,,2303,1452987.8570000017,535226.3479999974
Destination BC,accommodationServices,Accommodation services,HelloBC Accomodations Listing,1578,B&B Sunset Ranch,Bed & Breakfasts; Cabins & Cottages;,"6286 Rd 261, Dawson Creek, BC","6286 Rd 261, Dawson Creek, BC",6286 Rd 261,V0C2J0,Dawson Creek,,,,,,55.828500000000005,-120.79356,Accommodation,20181201072117,, ,4540101,Northern British Columbia, ,,3063,1325187.1579999994,1215671.0710000005
Destination BC,accommodationServices,Accommodation services,HelloBC Accomodations Listing,1579,Ramada Limited Quesnel,Hotels & Motels;,"383 St Laurent Ave, Quesnel, BC",383 St Laurent Ave,383 St Laurent Ave,V2J2E1,Quesnel,,,,,,52.9795513,-122.4944143,Accommodation,20181201072118,, ,4539485,Cariboo Chilcotin Coast, ,,4253,1234801.0519999997,891559.3330000024
Destination BC,accommodationServices,Accommodation services,HelloBC Accomodations Listing,1580,Baker Hill Heritage B&B,Bed & Breakfasts;,"110 - 12th Ave S, Cranbrook, BC",110 - 12th  Ave S,110 - 12th Ave S,V1C2S1,Cranbrook,,,,,,49.5097373,-115.7648254,Accommodation,20181201072116,, ,4540344,Kootenay Rockies, ,,2231,1739118.7599999998,552795.6649999982
Destination BC,accommodationServices,Accommodation services,HelloBC Accomodations Listing,1581,Banner Mountainlodge,Vacation Rentals; Cabins & Cottages;,"3 - 12753 Babine Lake Rd, Smithers, BC",3 - 12753 Babine Lake Rd,3 - 12753 Babine Lake Rd,V0J2N7,Smithers,,,,,,54.7634627,-126.931057,Accommodation,20181201072117,, ,4539370,Northern British Columbia, ,,2961,940233.1810000001,1085219.344999997
Destination BC,accommodationServices,Accommodation services,HelloBC Accomodations Listing,1582,Super 8 Dawson Creek,Hotels & Motels;,"1440 Alaska Ave, Dawson Creek, BC",1440 Alaska Ave,1440 Alaska Ave,V1G1Z5,Dawson Creek,,,,,,55.763161,-120.242321,Accommodation,20181201072117,, ,4540319,Northern British Columbia, ,,2659,1360136.9729999984,1211068.3930000057
Destination BC,accommodationServices,Accommodation services,HelloBC Accomodations Listing,1583,Mission Creek Country Inn,Bed & Breakfasts;,"2 - 3652 Spiers Rd, Kelowna, BC",2 - 3652 Spiers Rd,2 - 3652 Spiers Rd,V1W4A9,Kelowna,,,,,,49.851017,-119.44391999999999,Accommodation,20181201072116,, ,4540291,Thompson Okanagan, ,,2481,1470903.8040000002,559035.3880000012
Destination BC,accommodationServices,Accommodation services,HelloBC Accomodations Listing,1584,Blue Grouse Country Inn,Bed & Breakfasts;,"5177 Clearwater Valley Rd, Wells Gray Park, BC",5177 Clearwater Valley Rd,5177 Clearwater Valley Rd,V0E1N1,Wells Gray Park,,,,www.bluegrousecountryinn.com,,51.85814,-120.0199,Accommodation,20181201072118,, ,4540108,Thompson Okanagan, ,,3991,1410780.2260000003,778054.3620000025
Destination BC,accommodationServices,Accommodation services,HelloBC Accomodations Listing,1585,Fort Steele Resort & RV Park,Cabins & Cottages; Campgrounds & RV Parks - Private;,"Hwy 93/95, Fort Steele, BC",General Delivery Hwy 93/95,Hwy 93/95,V0B1N0,Fort Steele,,,,,,49.5432894,-115.4691154,Accommodation,20181201072118,,https://www.facebook.com/pages/Fort-Steele-Resort-RV-Park/118896506223?ref=br_tf,4541166,Kootenay Rockies, ,,3949,1759764.7799999998,559615.6829999993
Destination BC,accommodationServices,Accommodation services,HelloBC Accomodations Listing,1586,Country View Motor Inn,Hotels & Motels;,"176 Comazzetto Rd, Kamloops, BC",176 Comazzetto Rd,176 Comazzetto Rd,V2C6L6,Kamloops,,,,,,50.67507,-120.29108099999999,Accommodation,20181201072118,,http://www.facebook.com/CountryViewMotorInn,4541157,Thompson Okanagan,https://twitter.com/CVMIKam,,4037,1402810.3350000011,645155.0780000007
Destination BC,accommodationServices,Accommodation services,HelloBC Accomodations Listing,1587,Hampton Inn by Hilton - Vancouver Airport,Hotels & Motels;,"8811 Bridgeport Rd, Richmond, BC",8811 Bridgeport Rd,8811 Bridgeport Rd,V6X1R9,Richmond,,,,,,49.192012999999996,-123.126862,Accommodation,20181201072116,,https://www.facebook.com/HamptonInnYVR,4540362,Vancouver Coast and Mountains,https://twitter.com/hamptoninn_yvr,,2455,1209579.679999999,468216.9719999954
Destination BC,accommodationServices,Accommodation services,HelloBC Accomodations Listing,1588,Vance Creek Hotel & Conference Centre,Hotels & Motels;,"148 Silver Lode Lane, Silver Star Mountain Resort, BC","148 Silver Lode Lane, Silver Star Mountain Resort, BC",148 Silver Lode Lane,V1B3M1,Silver Star Mountain Resort,,,,www.vancecreekhotel.com,,50.2656562,-119.2719942,Accommodation,20181201072118,,https://www.facebook.com/VanceCreekHotel,4541173,Thompson Okanagan,https://twitter.com/VanceCreekHotel,,3391,1478839.054,606109.2920000004
Destination BC,accommodationServices,Accommodation services,HelloBC Accomodations Listing,1589,Nusatsum River Guest House B&B & Cabins,Bed & Breakfasts; Cabins & Cottages;,"2752 Hwy 20, Hagensborg, BC","2752 Hwy 20, Hagensborg, BC",2752 Hwy 20,V0T1H0,Hagensborg,,,,,,52.3584202,-126.7383538,Accommodation,20181201072116,, ,4540230,Cariboo Chilcotin Coast, ,,1817,949803.8530000002,816729.6939999992
Destination BC,accommodationServices,Accommodation services,HelloBC Accomodations Listing,1590,Travelodge Prince George,Hotels & Motels;,"1458 - 7th Ave, Prince George, BC",1458 - 7th Ave,1458 - 7th Ave,V2L3P3,Prince George,,,,,,53.9146344,-122.7509986,Accommodation,20181201072116,, ,4539495,Northern British Columbia, ,,2243,1212840.8430000008,994968.3340000045
Destination BC,accommodationServices,Accommodation services,HelloBC Accomodations Listing,1591,Historic Hat Creek Ranch,Cabins & Cottages; Campgrounds & RV Parks - Private;,"Junction Hwy 97/99, Cache Creek, BC","Junction Hwy 97/99, Cache Creek, BC",Junction Hwy 97/99,V0K1H0,Cache Creek,,,,wwwhatcreekranch.com,,50.8805102,-121.41952,Accommodation,20181201072116,,https://www.facebook.com/hatcreekranch,4539963,Thompson Okanagan,https://twitter.com/hatcreekranch,,2305,1321835.7710000004,662193.0259999931
Destination BC,accommodationServices,Accommodation services,HelloBC Accomodations Listing,1592,Coast Blackcomb Suites At Whistler,Hotels & Motels;,"4899 Painted Cliff Rd, Whistler, BC",4899 Painted Cliff Rd,4899 Painted Cliff Rd,V0N1B4,Whistler,,,,www.resortquestwhistler.com,,50.114053,-122.940941,Accommodation,20181201072117,,https://www.facebook.com/CoastWhistler,4540743,Vancouver Coast and Mountains,http://twitter.com/coastwhistler,,3611,1218705.2310000013,571197.0500000007
Destination BC,accommodationServices,Accommodation services,HelloBC Accomodations Listing,1593,Comfort Inn & Suites - Salmon Arm,Hotels & Motels;,"1090 - 22nd St NE, Salmon Arm, BC",1090 - 22nd St NE,1090 - 22nd St NE,V1E2V5,Salmon Arm,,,,,,50.7079305,-119.2594469,Accommodation,20181201072116,, ,4540147,Thompson Okanagan, ,,2281,1475049.447,655195.8299999982
Destination BC,accommodationServices,Accommodation services,HelloBC Accomodations Listing,1594,Clearwater Valley Resort & KOA Kampground,Hotels & Motels;,"373 Clearwater Valley Rd, Clearwater, BC",373 Clearwater Valley Rd,373 Clearwater Valley Rd,V0E1N1,Clearwater,,,,,,51.6536184,-120.0388288,Accommodation,20181201072117,, ,4539964,Thompson Okanagan, ,,3233,1411400.2320000003,755231.2250000024
Destination BC,accommodationServices,Accommodation services,HelloBC Accomodations Listing,1595,The Historic Lund Hotel,Hotels & Motels;,"1436 Hwy 101, Lund, BC",1436 Hwy 101,1436 Hwy 101,V0N2G0,Lund,,,,www.lundhotel.com,,49.9815552,-124.7609471,Accommodation,20181201072117,,https://www.facebook.com/The-Historic-Lund-Hotel-306692363077015/,4539339,Vancouver Coast and Mountains, ,,3637,1088866.2019999993,552510.1389999995
Destination BC,accommodationServices,Accommodation services,HelloBC Accomodations Listing,1596,Sandman Suites Surrey (Guildford),Hotels & Motels;,"10608 151A St, Surrey, BC",10608 151A St,10608 151A St,V3R1J8,Surrey,,,,www.sandmanhotels.com,,49.195125,-122.802044,Accommodation,20181201072116,,http://www.facebook.com/sandmanhotelgroup,4539349,Vancouver Coast and Mountains,http://twitter.com/sandmanhotels,,1947,1233242.4609999992,469578.3129999982
Destination BC,accommodationServices,Accommodation services,HelloBC Accomodations Listing,1597,St. Eugene Golf Resort & Casino,Hotels & Motels; Resorts;,"7777 Mission Rd, Cranbrook, BC",7777 Mission Rd,7777 Mission Rd,V1C7E5,Cranbrook,,,,www.steugene.ca,,49.5864552,-115.7586479,Accommodation,20181201072117,,http://www.facebook.com/St.EugeneGolfResortCasino,4539346,Kootenay Rockies,http://twitter.com/StEugeneResort,,3147,1738332.3280000007,561298.9669999974
Destination BC,accommodationServices,Accommodation services,HelloBC Accomodations Listing,1598,"Valemount Pines Golf Club, RV Park & Campground",Campgrounds & RV Parks - Private;,"1110 Hwy 5N, Valemount, BC","1110 Hwy 5N, Valemount, BC",1110 Hwy 5N,V0E2Z0,Valemount,,,,,,52.8152335,-119.2704299,Accommodation,20181201072117,,https://www.facebook.com/Valemount-Pines-Golf-RV-Park-116305101729707/,4540750,Thompson Okanagan, ,,2613,1451985.948999999,888914.2550000018
Destination BC,accommodationServices,Accommodation services,HelloBC Accomodations Listing,1599,Highland House B&B Inn,Bed & Breakfasts;,"8615 Tunkwa Lake Rd, Logan Lake, BC","8615 Tunkwa Lake Rd, Logan Lake, BC",8615 Tunkwa Lake Rd,V0K1W0,Logan Lake,,,,,,50.7564779,-120.8122631,Accommodation,20181201072118,, ,4539275,Thompson Okanagan, ,,4199,1365442.3320000006,651363.3990000002
Destination BC,accommodationServices,Accommodation services,HelloBC Accomodations Listing,1600,Beaver Guest Ranch,Bed & Breakfasts;,"7471 Cariboo Chalet Rd, Deka Lake, BC",7471 Cariboo Chalet Rd,7471 Cariboo Chalet Rd,V0K1X3,Deka Lake,,,,www.BeaverGuestRanch.com,,51.6149505,-120.8589735,Accommodation,20181201072118,, ,4539273,Cariboo Chilcotin Coast, ,,3819,1355219.481000001,746494.4780000001
Destination BC,accommodationServices,Accommodation services,HelloBC Accomodations Listing,1601,Wildwood Campsite,Campgrounds & RV Parks - Private;,"5 - 4195 Wildwood Rd, Williams Lake, BC",5 - 4195 Wildwood Rd,5 - 4195 Wildwood Rd,V2G4Z8,Williams Lake,,,,,,52.2180325,-122.0912433,Accommodation,20181201072118,, ,4539532,Cariboo Chilcotin Coast, ,,4087,1266466.0800000008,808172.6839999985
Destination BC,accommodationServices,Accommodation services,HelloBC Accomodations Listing,1602,Cariboo Joy RV Park,Campgrounds & RV Parks - Private;,"12566 Barkerville Hwy, Wells, BC","12566 Barkerville Hwy, Wells, BC",12566 Barkerville Hwy,V0K2R0,Wells,,,,,,53.0986278,-121.5798424,Accommodation,20181201072117,, ,4539281,Cariboo Chilcotin Coast, ,,3531,1295157.9919999999,908246.2890000027
Destination BC,accommodationServices,Accommodation services,HelloBC Accomodations Listing,1603,Beach Avenue B&B,Bed & Breakfasts;,"3910 Beach Ave, Peachland, BC",3910 Beach Ave,3910 Beach Ave,V0H1X1,Peachland,,,,,,49.791249,-119.702815,Accommodation,20181201072116,, ,4539286,Thompson Okanagan, ,,1761,1452948.6640000015,550727.1049999949
Destination BC,accommodationServices,Accommodation services,HelloBC Accomodations Listing,1604,Aaron's Pool and Spa Bed and Breakfast,Bed & Breakfasts;,"2160 Wilkinson St, Kelowna, BC",2160 Wilkinson St,2160 Wilkinson St,V1Y3Z8,Kelowna,,,,,,49.875201999999994,-119.471533,Accommodation,20181201072118,,http://www.facebook.com/KelownaBB,4539265,Thompson Okanagan,https://twitter.com/kelownabb,,3795,1468678.3989999997,561530.2380000008
Destination BC,accommodationServices,Accommodation services,HelloBC Accomodations Listing,1605,R&R B&B,Bed & Breakfasts;,"5221 Oleander Dr, Osoyoos, BC",124 Canova Pl SW,5221 Oleander Dr,V0H1V1,Osoyoos,,,,,,49.022760999999996,-119.468279,Accommodation,20181201072118,, ,4539276,Thompson Okanagan, ,,3411,1477640.4680000008,467212.74800000247
Destination BC,accommodationServices,Accommodation services,HelloBC Accomodations Listing,1606,Arctic Divide Lodge and Motel,Hotels & Motels;,"Hwy 37, Dease Lake, BC","Hwy 37, Dease Lake, BC",Hwy 37,V0C1L0,Dease Lake,,,,,,58.4360422,-129.987402,Accommodation,20181201072117,, ,4540696,Northern British Columbia, ,,3211,767231.0689999997,1501078.5889999936
Destination BC,accommodationServices,Accommodation services,HelloBC Accomodations Listing,1607,Above The Orchard B&B,Bed & Breakfasts;,"5516 Foxglove St, Oliver, BC",5516 Foxglove St,5516 Foxglove St,V0H1T9,Oliver,,,,bbcanada.com/abovetheorchard,,49.1582462,-119.5603466,Accommodation,20181201072115,, ,4539240,Thompson Okanagan, ,,1497,1469559.4639999992,481583.75300000235
Destination BC,accommodationServices,Accommodation services,HelloBC Accomodations Listing,1608,Kastlerock B&B,Bed & Breakfasts;,"1005 Carbonate St, Nelson, BC",1005 Carbonate St,1005 Carbonate St,V1L4R6,Nelson,,,,,,49.492059999999995,-117.284546,Accommodation,20181201072117,, ,4539224,Kootenay Rockies, ,,3255,1630219.3850000002,536149.6029999983
Destination BC,accommodationServices,Accommodation services,HelloBC Accomodations Listing,1609,New Horizon Motel,Hotels & Motels;,"2037 Hunter Frontage Rd (Hwy 3), Christina Lake, BC",2037 Hunter Frontage Rd (Hwy 3),2037 Hunter Frontage Rd (Hwy 3),V0H1E2,Christina Lake,,,,,,49.0598073,-118.2140923,Accommodation,20181201072117,, ,4539402,Thompson Okanagan, ,,3149,1568562.6740000008,480574.56900000107
Destination BC,accommodationServices,Accommodation services,HelloBC Accomodations Listing,1610,Holiday Inn Express Hotel & Suites Vernon,Hotels & Motels;,"4716 - 34th St, Vernon, BC",4716 - 34th St,4716 - 34th St,V1T5Y9,Vernon,,,,holidayinnexpress.com/vernonbc,,50.2600055,-119.2762256,Accommodation,20181201072116,,https://www.facebook.com/HolidayInnExpressVernonBC,4539348,Thompson Okanagan,http://twitter.com/HotelVernonBC,,2249,1478598.435,605454.7749999994
Destination BC,accommodationServices,Accommodation services,HelloBC Accomodations Listing,1611,Brentwood Bay Resort & Spa,Hotels & Motels; Resorts;,"849 Verdier Ave, Victoria, BC",849 Verdier Ave,849 Verdier Ave,V8M1C5,Victoria,,,,www.brentwoodbayresort.com,,48.577875999999996,-123.465202,Accommodation,20181201072118,,http://www.facebook.com/brentwoodbaylodge,4539247,Vancouver Island, ,,4263,1187352.272999999,399120.27699999884
Destination BC,accommodationServices,Accommodation services,HelloBC Accomodations Listing,1612,West Coast Wilderness Lodge Resort,Resorts;,"6659 Maple Rd, Egmont, BC",General Delivery,6659 Maple Rd,V0N1N0,Egmont,,,,,,49.7582032,-123.9429474,Accommodation,20181201072118,,https://www.facebook.com/WestCoastWildernessLodge,4539215,Vancouver Coast and Mountains, ,,3385,1148242.4480000015,529047.5439999998
Destination BC,accommodationServices,Accommodation services,HelloBC Accomodations Listing,1613,Oxbow RV Resort,Campgrounds & RV Parks - Private;,"198 Skaha Pl, Penticton, BC",198 Skaha Pl,198 Skaha Pl,V2A7L1,Penticton,,,,www.oxbowrvresort.com,,49.454555,-119.59124299999999,Accommodation,20181201072118,, ,4539988,Thompson Okanagan, ,,3439,1464336.0969999994,514170.0529999994
Destination BC,accommodationServices,Accommodation services,HelloBC Accomodations Listing,1614,Catch Of The Day Cottages,Cabins & Cottages;,"5907 Sunshine Coast Hwy, Sechelt, BC","5907 Sunshine Coast Hwy, Sechelt, BC",5907 Sunshine Coast Hwy,V0N3A0,Sechelt,,,,www.bbcanada.com/catchoftheday,,49.4706326,-123.7697986,Accommodation,20181201072116,, ,4539256,Vancouver Coast and Mountains, ,,2199,1161723.504000001,497472.1970000006
Destination BC,accommodationServices,Accommodation services,HelloBC Accomodations Listing,1615,Marifield House B&B,Bed & Breakfasts;,"235 Government St, Victoria, BC",235 Government St,235 Government St,V8V2K8,Victoria,,,,,,48.414455,-123.369702,Accommodation,20181201072117,, ,4539310,Vancouver Island, ,,2599,1195081.3800000013,381254.4600000009
Destination BC,accommodationServices,Accommodation services,HelloBC Accomodations Listing,1616,Woodlands Inn & Suites,Hotels & Motels;,"3995 50th Ave S, Fort Nelson, BC","3995 50th Ave S, Fort Nelson, BC",3995 50th Ave S,V0C1R0,Fort Nelson,,,,www.woodlandsinn.ca,,58.8010726,-122.6766872,Accommodation,20181201072116,,http://www.facebook.com/woodlandsinnfortnelson,4540793,Northern British Columbia,https://twitter.com/WoodlandsInnFN,,1547,1192125.584000001,1539684.9060000018
Destination BC,accommodationServices,Accommodation services,HelloBC Accomodations Listing,1617,Beach Taghum B&B,Bed & Breakfasts;,"3289 Granite Rd, Nelson, BC",3289 Granite Rd,3289 Granite Rd,V1L6X8,Nelson,,,,,,49.4877393,-117.3816263,Accommodation,20181201072116,,https://www.facebook.com/pages/Beach-Taghum-Bed-Breakfast/145144782234394?sk=info&tab=overview,4540285,Kootenay Rockies, ,,2403,1623292.6879999992,534813.4520000033
Destination BC,accommodationServices,Accommodation services,HelloBC Accomodations Listing,1618,The Hillcrest Hotel - A Coast Resort,Hotels & Motels;,"2100 Oak Dr, Revelstoke, BC","2100 Oak Dr, Revelstoke, BC",2100 Oak Dr,V0E2S0,Revelstoke,,,,,,50.992962,-118.160881,Accommodation,20181201072115,, ,4540297,Kootenay Rockies, ,,1671,1548670.668,694709.398
Destination BC,accommodationServices,Accommodation services,HelloBC Accomodations Listing,1619,Chilcotin Lodge,Bed & Breakfasts; Campgrounds & RV Parks - Private;,"1080 Stack Valley Rd, Riske Creek, BC","1080 Stack Valley Rd, Riske Creek, BC",1080 Stack Valley Rd,V0L1T0,Riske Creek,,,,,,52.0004056,-122.9690319,Accommodation,20181201072117,, ,4539534,Cariboo Chilcotin Coast, ,,3341,1207706.2050000003,780999.1869999999
Destination BC,accommodationServices,Accommodation services,HelloBC Accomodations Listing,1620,Beaver Creek Lodge,Cabins & Cottages;,"915 Bridge Rd, McBride, BC","915 Bridge Rd, McBride, BC",915 Bridge Rd,V0J2E0,McBride,,,,,,53.3039369,-120.1605947,Accommodation,20181201072117,, ,4541285,Northern British Columbia, ,,3349,1387852.715999999,937940.387000001
Destination BC,accommodationServices,Accommodation services,HelloBC Accomodations Listing,1621,Atnarko Lodge,Bed & Breakfasts;,"2129 Engadin Rd, Charlotte Lake, BC","2129 Engadin Rd, Charlotte Lake, BC",2129 Engadin Rd,V0L1R0,Charlotte Lake,,,,,,52.2185456,-125.2633667,Accommodation,20181201072118,,https://www.facebook.com/AtnarkoLodge,4541265,Cariboo Chilcotin Coast, ,,4311,1050241.4719999996,801132.9839999983
Destination BC,accommodationServices,Accommodation services,HelloBC Accomodations Listing,1622,Terrace Beach Resort,Vacation Rentals; Cabins & Cottages;,"1002 Peninsula Rd, Ucluelet, BC","1002 Peninsula Rd, Ucluelet, BC",1002 Peninsula Rd,V0R3A0,Ucluelet,,,,,,48.9249865,-125.5290142,Accommodation,20181201072117,,https://www.facebook.com/Terrace-Beach-Resort-Ucluelet-175523062485356/,4541294,Vancouver Island, ,,3553,1034562.348,434417.8770000031
Destination BC,accommodationServices,Accommodation services,HelloBC Accomodations Listing,1623,Seal Bay RV Park,Campgrounds & RV Parks - Private;,"1901 Larch Rd, Courtenay, BC",1901 Larch Rd,1901 Larch Rd,V9J1X7,Courtenay,,,,,,49.7485878,-124.9516856,Accommodation,20181201072117,, ,4541267,Vancouver Island, ,,2939,1075570.965,526383.9989999989
Destination BC,accommodationServices,Accommodation services,HelloBC Accomodations Listing,1624,The Griz Inn,Hotels & Motels;,"5369 Ski Hill Rd, Fernie Alpine Resort, BC","5369 Ski Hill Rd, Fernie Alpine Resort",5369 Ski Hill Rd,V0B1M6,Fernie Alpine Resort,,,,,,49.4633826,-115.0851774,Accommodation,20181201072116,,https://www.facebook.com/grizinn,4541223,Kootenay Rockies, ,,1619,1788612.5559999994,555034.383000006
Destination BC,accommodationServices,Accommodation services,HelloBC Accomodations Listing,1625,The Villager Inn Princeton,Hotels & Motels;,"244 - 4th St, Princeton, BC","244 - 4th St, Princeton, BC",244 - 4th St,V0X1W0,Princeton,,,,www.villagerinn.ca,,49.4556905,-120.51061,Accommodation,20181201072117,, ,4539423,Thompson Okanagan, ,,3557,1397859.8589999992,508697.10500000045
Destination BC,accommodationServices,Accommodation services,HelloBC Accomodations Listing,1626,Kimberley Riverside Campground,Campgrounds & RV Parks - Private;,"Site 500 St. Mary Lake Rd, Kimberley, BC","Site 500 St. Mary Lake Rd, Kimberley, BC",Site 500 St. Mary Lake Rd,V1A3B9,Kimberley,,,,www.kimberleycampground.com,,49.6346747,-115.9974289,Accommodation,20181201072116,,https://www.facebook.com/KimberleyRiversideCampground,4541228,Kootenay Rockies, ,,1537,1720479.0270000016,564144.4919999987
Destination BC,accommodationServices,Accommodation services,HelloBC Accomodations Listing,1627,Chase Country Inn,Hotels & Motels;,"576 Coburn St, Chase, BC","576 Coburn St, Chase, BC",576 Coburn St,V0E1M0,Chase,,,,www.chasecountryinn.ca,,50.8173144,-119.6825908,Accommodation,20181201072117,,https://www.facebook.com/ChaseCountryInn,4541104,Thompson Okanagan, ,,2585,1444224.3420000002,664575.0659999996
Destination BC,accommodationServices,Accommodation services,HelloBC Accomodations Listing,1628,Arbutus Hill B&B,Bed & Breakfasts;,"356 Cyril Owen Pl, Victoria, BC",356 Cyril Owen Pl,356 Cyril Owen Pl,V9E2B6,Victoria,,,,,,48.501168,-123.430888,Accommodation,20181201072118,, ,4539297,Vancouver Island, ,,4275,1190196.2789999992,390703.9310000008
Destination BC,accommodationServices,Accommodation services,HelloBC Accomodations Listing,1629,M & M B&B Suites,Bed & Breakfasts;,"5486 - 14B Ave (Delta), Tsawwassen, BC",5486 - 14B Ave (Delta),5486 - 14B Ave (Delta),V4M2G6,Tsawwassen,,,,,,49.029733,-123.0720492,Accommodation,20181201072116,, ,4539264,Vancouver Coast and Mountains, ,,1963,1214321.1019999995,450369.15499999933
Destination BC,accommodationServices,Accommodation services,HelloBC Accomodations Listing,1630,Sunny Shuswap B&B,Bed & Breakfasts;,"302 Arbutus St, Chase, BC","302 Arbutus St, Chase, BC",302 Arbutus St,V0E1M0,Chase,,,,www.sunnyshuswapbb.com,,50.824262,-119.6850004,Accommodation,20181201072117,,https://www.facebook.com/pages/Sunny-Shuswap-BB/249259338604160,4539316,Thompson Okanagan, ,,3185,1443986.44,665330.4460000005
Destination BC,accommodationServices,Accommodation services,HelloBC Accomodations Listing,1631,Windermere Village Inn Motel,Hotels & Motels;,"4711 Kootenay St, Windermere, BC",4711 Kootenay St,4711 Kootenay St,V0B2L2,Windermere,,,,,,50.46534,-115.989315,Accommodation,20181201072117,,https://www.facebook.com/Windermere-Village-Inn-Motel-1525752221011961/,4541237,Kootenay Rockies, ,,2931,1708036.8099999991,655704.5040000044
Destination BC,accommodationServices,Accommodation services,HelloBC Accomodations Listing,1632,Rockwater Secret Cove Resort,Resorts; Cabins & Cottages;,"5356 Ole's Cove Rd, Halfmoon Bay, BC",5356 Ole's Cove Rd,5356 Ole's Cove Rd,V0N1Y2,Halfmoon Bay,,,,,,49.5415682,-123.9780011,Accommodation,20181201072118,,http://www.facebook.com/RockWaterResort,4539776,Vancouver Coast and Mountains,http://twitter.com/rockwaterresort,,4053,1146404.8000000012,504900.1769999992
Destination BC,accommodationServices,Accommodation services,HelloBC Accomodations Listing,1633,Fisherboy Park Sayward Valley Resort,Hotels & Motels; Campgrounds & RV Parks - Private;,"1546 Sayward Rd, Sayward, BC",1546 Sayward Rd,1546 Sayward Rd,V0P1R0,Sayward,,,,saywardvalleyresort.ca,,50.315024,-125.9203577,Accommodation,20181201072118,,http://www.facebook.com/pages/Fisherboy-Park/214199631943347,4540526,Vancouver Island, ,,3365,1005670.5850000015,588834.3000000063
Destination BC,accommodationServices,Accommodation services,HelloBC Accomodations Listing,1634,A Lakeview Heights B&B,Bed & Breakfasts;,"3626 Royal Gala Dr, West Kelowna, BC",3626 Royal Gala Dr,3626 Royal Gala Dr,V4T2N9,West Kelowna,,,,www.mountainsideaccommodations.com,,49.8335537,-119.58498,Accommodation,20181201072116,,https://www.facebook.com/pages/A-Lakeview-Heights-Bed-Breakfast-Kelowna/262005867224484,4539229,Thompson Okanagan, ,,1973,1460975.6769999997,556173.0909999982
Destination BC,accommodationServices,Accommodation services,HelloBC Accomodations Listing,1635,Hammond Bay Oceanside B&B,Bed & Breakfasts;,"3804 Hammond Bay Rd, Nanaimo, BC",3804 Hammond Bay Rd,3804 Hammond Bay Rd,V9T1G3,Nanaimo,,,,,,49.226046,-123.957259,Accommodation,20181201072116,, ,4539296,Vancouver Island, ,,2799,1148917.9069999987,469893.28700000513
Destination BC,accommodationServices,Accommodation services,HelloBC Accomodations Listing,1636,Anchors Inn Waterfront Cabins,Vacation Rentals; Cabins & Cottages;,"131 Garden St, Ucluelet, BC","131 Garden St, Ucluelet, BC",131 Garden St,V0R3A0,Ucluelet,,,,,,48.9388587,-125.5405845,Accommodation,20181201072116,,http://www.facebook.com/AnchorsInnWaterfrontCabins,4539258,Vancouver Island, ,,2113,1033703.299,435952.8339999998
Destination BC,accommodationServices,Accommodation services,HelloBC Accomodations Listing,1637,Sandman Inn McBride,Hotels & Motels;,"Hwy 16, McBride, BC","Hwy 16, McBride, BC",Hwy 16,V0J2E0,McBride,,,,www.sandmanhotels.com,,55.0928659,-127.8184799,Accommodation,20181201072117,,http://www.facebook.com/sandmanhotelgroup,4539418,Northern British Columbia,http://twitter.com/sandmanhotels,,2855,884221.2339999997,1123082.9729999974
Destination BC,accommodationServices,Accommodation services,HelloBC Accomodations Listing,1638,Marriott Victoria Inner Harbour,Hotels & Motels;,"728 Humboldt St, Victoria, BC",728 Humboldt St,728 Humboldt St,V8W3Z5,Victoria,,,,www.marriottvictoria.com,,48.421929999999996,-123.365724,Accommodation,20181201072116,,http://www.facebook.com/marriottvictoria,4539255,Vancouver Island, ,,1563,1195345.4219999998,382094.2940000016
Destination BC,accommodationServices,Accommodation services,HelloBC Accomodations Listing,1639,La Quinta Inn Vancouver Airport,Hotels & Motels;,"8640 Alexandra Rd, Richmond, BC",8640 Alexandra Rd,8640 Alexandra Rd,V6X4K6,Richmond,,,,http://759.LQ.com,,49.178309999999996,-123.127314,Accommodation,20181201072117,, ,4541263,Vancouver Coast and Mountains, ,,2625,1209608.488,466694.5
Destination BC,accommodationServices,Accommodation services,HelloBC Accomodations Listing,1640,The Riding Fool Hostel,Hostels;,"2705 Dunsmuir Ave, Cumberland, BC","2705 Dunsmuir Ave, Cumberland, BC",2705 Dunsmuir Ave,V0R1S0,Cumberland,,,,,,49.618973,-125.029167,Accommodation,20181201072118,,http://www.facebook.com/pages/Riding-Fool-Hostel/113513702069617,4541291,Vancouver Island, ,,3861,1070183.4650000003,511895.0639999993
Destination BC,accommodationServices,Accommodation services,HelloBC Accomodations Listing,1641,Simon Fraser University-Conference & Guest Accommodations,Hotels & Motels; Hostels;,"Bldg A, Res. & Housing, SFU, Burnaby, BC","Bldg A, Res. & Housing, SFU","Bldg A, Res. & Housing, SFU",V5A1S6,Burnaby,,,,www.sfu.ca/stayhere,,49.2799775,-122.9253924,Accommodation,20181201072117,, ,4541055,Vancouver Coast and Mountains,http://twitter.com/SFUstayhere,,2667,1223842.4989999994,478598.61400000006
Destination BC,accommodationServices,Accommodation services,HelloBC Accomodations Listing,1642,Shady Shores Beach Resort/Log House,Vacation Rentals; Cabins & Cottages;,"6695 Island Hwy W, Qualicum Beach, BC",6695 Island Hwy W,6695 Island Hwy W,V0R1G0,Qualicum Beach,,,,www.shadyshoresbeachresort.com,,49.4266628,-124.6562862,Accommodation,20181201072116,, ,4540005,Vancouver Island, ,,2197,1097542.6989999996,490963.392
Destination BC,accommodationServices,Accommodation services,HelloBC Accomodations Listing,1643,Anchor Inn (Prince Rupert),Hotels & Motels;,"1600 Park Ave, Prince Rupert, BC",1600 Park Ave,1600 Park Ave,V8J4P7,Prince Rupert,,,,,,54.304037,-130.336437,Accommodation,20181201072117,, ,4540509,Northern British Columbia, ,,3047,718660.2249999994,1042164.4480000008
Destination BC,accommodationServices,Accommodation services,HelloBC Accomodations Listing,1644,Coast Discovery Inn,Hotels & Motels;,"975 Shoppers Row, Campbell River, BC",975 Shoppers Row,975 Shoppers Row,V9W2C4,Campbell River,,,,,,50.025908,-125.243097,Accommodation,20181201072118,,https://www.facebook.com/coastdiscoveryinn/?fref=ts,4539840,Vancouver Island, ,,3451,1054234.8860000004,556955.7030000007
Destination BC,accommodationServices,Accommodation services,HelloBC Accomodations Listing,1645,Oyster Bay Resorts,Cabins & Cottages;,"4357 Island Hwy S, Campbell River, BC",4357 Island Hwy S,4357 Island Hwy S,V9H1N4,Campbell River,,,,,,49.894504,-125.140748,Accommodation,20181201072118,, ,4540753,Vancouver Island, ,,3899,1061745.6199999999,542425.3360000001
Destination BC,accommodationServices,Accommodation services,HelloBC Accomodations Listing,1646,Salmon Point Resort RV Park & Marina,Cabins & Cottages; Campgrounds & RV Parks - Private;,"2176 Salmon Point Rd, Campbell River, BC",2176 Salmon Point Rd,2176 Salmon Point Rd,V9H1E5,Campbell River,,,,,,49.88811,-125.130338,Accommodation,20181201072117,, ,4539836,Vancouver Island, ,,2859,1062502.3780000007,541723.4309999999
Destination BC,accommodationServices,Accommodation services,HelloBC Accomodations Listing,1647,Thunderbird RV Park & Campground,Campgrounds & RV Parks - Private;,"2660 Spit Rd, Campbell River, BC",1650 Old Spit Road,2660 Spit Rd,V9W6E3,Campbell River,,,,,,50.0434865,-125.2518187,Accommodation,20181201072116,, ,4539842,Vancouver Island, ,,2013,1053589.3019999994,558904.2790000001
Destination BC,accommodationServices,Accommodation services,HelloBC Accomodations Listing,1648,Cobble House B&B,Bed & Breakfasts;,"3105 Cameron-Taggart Rd, Cobble Hill, BC",3105 Cameron-Taggart Rd,3105 Cameron-Taggart Rd,V0R1L6,Cobble Hill,,,,,,48.669488,-123.597167,Accommodation,20181201072116,,https://www.facebook.com/Cobble.House.Bed.and.Breakfast/,4540866,Vancouver Island,https://twitter.com/CHinnkeeper,,2747,1177257.2210000001,408943.1649999926
Destination BC,accommodationServices,Accommodation services,HelloBC Accomodations Listing,1649,Beach House B&B,Bed & Breakfasts;,"3614 Island Hwy S, Courtenay, BC",3614 Island Hwy S,3614 Island Hwy S,V9N9T6,Courtenay,,,,,,49.6578637,-124.965502,Accommodation,20181201072118,,https://www.facebook.com/TheBeachHouseBB,4540951,Vancouver Island, ,,4101,1074722.4379999996,516283.39600000065
Destination BC,accommodationServices,Accommodation services,HelloBC Accomodations Listing,1650,Travelodge Courtenay,Hotels & Motels;,"2605 Cliffe Ave, Courtenay, BC",2605 Cliffe Ave,2605 Cliffe Ave,V9N2L8,Courtenay,,,,,,49.675083,-124.982118,Accommodation,20181201072117,,https://www.facebook.com/Travelodge.Courtenay,4539830,Vancouver Island, ,,3169,1073494.812000001,518180.2040000018
Destination BC,accommodationServices,Accommodation services,HelloBC Accomodations Listing,1651,Wessex Inn,Hotels & Motels;,"1846 Cowichan Bay Rd, Cowichan Bay, BC",1846 Cowichan Bay Rd,1846 Cowichan Bay Rd,V0R1N0,Cowichan Bay,,,,,,48.741797,-123.625334,Accommodation,20181201072118,, ,4539906,Vancouver Island, ,,4299,1174910.901000001,416895.89299999736
Destination BC,accommodationServices,Accommodation services,HelloBC Accomodations Listing,1652,Page's Resort & Marina,Cabins & Cottages; Campgrounds & RV Parks - Private;,"3350 Coast Rd, Gabriola Island, BC",3350 Coast Rd,3350 Coast Rd,V0R1X7,Gabriola Island,,,,www.pagesresort.com,,49.140927,-123.70931999999999,Accommodation,20181201072116,,http://www.facebook.com/pagesresort,4540016,Vancouver Island, ,,1585,1167292.889000001,460994.8500000024
Destination BC,accommodationServices,Accommodation services,HelloBC Accomodations Listing,1653,Knight Inlet Lodge,Hotels & Motels; Resorts;,"Knight Inlet Fly-In, Knight Inlet, BC",8841 Driftwood Rd,Knight Inlet Fly-In,V9J1A8,Knight Inlet,,,,,,50.676171,-125.72521,Accommodation,20181201072117,,https://www.facebook.com/knightinlet/,4539228,Vancouver Island,http://twitter.com/knightinlet,,2635,1019409.1600000008,629064.436999998
Destination BC,accommodationServices,Accommodation services,HelloBC Accomodations Listing,1654,Mountainaire Campground & RV Park,Campgrounds & RV Parks - Private;,"1092 Spruston Rd, Nanaimo, BC",1092 Spruston Rd,1092 Spruston Rd,V9X1R2,Nanaimo,,,,,,49.0635192,-123.9202881,Accommodation,20181201072116,,https://www.facebook.com/MountainaireRVPark,4541302,Vancouver Island, ,,1641,1152142.7080000003,451924.1349999998
Destination BC,accommodationServices,Accommodation services,HelloBC Accomodations Listing,1655,Blue Vista Resort,Cabins & Cottages;,"563 Arbutus Dr, Mayne Island, BC",563 Arbutus Drive,563 Arbutus Dr,V0N2J1,Mayne Island,,,,,,48.838713999999996,-123.2504742,Accommodation,20181201072115,, ,4539903,Vancouver Island, ,,1475,1202091.1950000008,428647.7289999984
Destination BC,accommodationServices,Accommodation services,HelloBC Accomodations Listing,1656,Beehive RV Park & Campground,Campgrounds & RV Parks - Private;,"780 Kilmalu Rd, Mill Bay, BC","780 Kilmalu Rd, Mill Bay, BC",780 Kilmalu Rd,V0R2P2,Mill Bay,,,,www.beehivecampground.com,,48.6648601,-123.5558505,Accommodation,20181201072117,, ,4539970,Vancouver Island, ,,3327,1180321.676000001,408534.08199999854
Destination BC,accommodationServices,Accommodation services,HelloBC Accomodations Listing,1657,Buccaneer Inn,Hotels & Motels;,"1577 Stewart Ave, Nanaimo, BC",1577 Stewart Ave,1577 Stewart Ave,V9S4E3,Nanaimo,,,,,,49.185843999999996,-123.947767,Accommodation,20181201072117,, ,4539852,Vancouver Island,http://twitter.com/BuccaneerInn,,3131,1149739.155,465448.6409999998
Destination BC,accommodationServices,Accommodation services,HelloBC Accomodations Listing,1658,Coast Bastion Hotel,Hotels & Motels;,"11 Bastion St, Nanaimo, BC",11 Bastion St,11 Bastion St,V9R6E4,Nanaimo,,,,,,49.16693,-123.93607,Accommodation,20181201072116,, ,4541198,Vancouver Island, ,,2149,1150653.6290000007,463373.0510000037
Destination BC,accommodationServices,Accommodation services,HelloBC Accomodations Listing,1659,Graycliff Cottage Oceanfront B&B,Bed & Breakfasts;,"7550 Lantzville Rd, Nanaimo, BC",7550 Lantzville Rd,7550 Lantzville Rd,V0R2H0,Nanaimo,,,,,,49.252978999999996,-124.095405,Accommodation,20181201072116,, ,4540734,Vancouver Island, ,,1785,1138768.94,472603.89499999676
Destination BC,accommodationServices,Accommodation services,HelloBC Accomodations Listing,1660,Island View B&B,Bed & Breakfasts;,"5391 Entwhistle Dr, Nanaimo, BC",5391 Entwhistle Dr,5391 Entwhistle Dr,V9V1H2,Nanaimo,,,,,,49.237595,-123.993945,Accommodation,20181201072116,, ,4540735,Vancouver Island, ,,1647,1146207.826,471099.46299999114
Destination BC,accommodationServices,Accommodation services,HelloBC Accomodations Listing,1661,Howard Johnson Harbourside Hotel,Hotels & Motels;,"1 Terminal Ave, Nanaimo, BC",1 Terminal Ave,1 Terminal Ave,V9R5R4,Nanaimo,,,,www.hojovictoria.ca,,49.168912,-123.940575,Accommodation,20181201072116,,https://www.facebook.com/pages/Howard-Johnson-Harbourside-Hotel/127604987277995,4539915,Vancouver Island, ,,1775,1150318.4810000004,463583.5729999989
Destination BC,accommodationServices,Accommodation services,HelloBC Accomodations Listing,1662,Nanoose Creek Campground,Campgrounds & RV Parks - Private;,"2212 Island Hwy E, Nanoose Bay, BC",2212 Island Hwy E,2212 Island Hwy E,V9P9A8,Nanoose Bay,,,,,,49.314139999999995,-124.2756881,Accommodation,20181201072116,, ,4540848,Vancouver Island, ,,1813,1125470.7180000006,479061.1309999991
Destination BC,accommodationServices,Accommodation services,HelloBC Accomodations Listing,1663,Beach Acres Resort,Cabins & Cottages;,"25 - 1051 Resort Dr, Parksville, BC",#25 - 1051 Resort Dr,25 - 1051 Resort Dr,V9P2E4,Parksville,,,,www.BeachAcresResort.com,,49.3137086,-124.2657566,Accommodation,20181201072117,,http://www.facebook.com/BeachAcresResort,4539875,Vancouver Island,http://twitter.com/#!/beachacreresort,,2943,1126194.42,479030.86299999896
Destination BC,accommodationServices,Accommodation services,HelloBC Accomodations Listing,1664,Quality Resort Bayside,Hotels & Motels;,"240 Dogwood St, Parksville, BC","240 Dogwood St, Parksville, BC",240 Dogwood St,V9P2H5,Parksville,,,,,,49.324732,-124.32439,Accommodation,20181201072116,, ,4539878,Vancouver Island,http://twitter.com/@qualitybayside,,2307,1121899.7060000007,480152.7010000013
Destination BC,accommodationServices,Accommodation services,HelloBC Accomodations Listing,1665,Paradise Sea Shell Motel & RV Park,Hotels & Motels; Campgrounds & RV Parks - Private;,"375 W Island Hwy, Parksville, BC",375 W Island Hwy,375 W Island Hwy,V9P1A1,Parksville,,,,,,49.323539,-124.324329,Accommodation,20181201072116,,http://www.facebook.com/pages/Paradise-Fun-Park/211638835521302,4540601,Vancouver Island,http://twitter.com/ParadiseFunPark,,2085,1121907.2810000004,480020.27499999665
Destination BC,accommodationServices,Accommodation services,HelloBC Accomodations Listing,1666,Park Sands Beach Resort,Campgrounds & RV Parks - Private;,"105 Island Hwy E, Parksville, BC","105 Island Hwy E, Parksville, BC",105 Island Hwy E,V9P2G4,Parksville,,,,www.parksands.com,,49.3210809,-124.3116406,Accommodation,20181201072117,,https://www.facebook.com/pages/Park-Sands-Beach-Resort/276701975729917,4541199,Vancouver Island, ,,3237,1122836.718,479769.1389999939
Destination BC,accommodationServices,Accommodation services,HelloBC Accomodations Listing,1667,Parrys RV Park & Campground,Campgrounds & RV Parks - Private;,"380 Martindale Rd, Parksville, BC",380 Martindale Rd,380 Martindale Rd,V9P1R7,Parksville,,,,,,49.313100000000006,-124.2856,Accommodation,20181201072118,, ,4539968,Vancouver Island, ,,4089,1124752.411000001,478928.08400000073
Destination BC,accommodationServices,Accommodation services,HelloBC Accomodations Listing,1668,Esta Villa Motel,Hotels & Motels;,"4014 Johnston Rd, Port Alberni, BC",4014 Johnston Rd,4014 Johnston Rd,V9Y5N3,Port Alberni,,,,,,49.263632,-124.796272,Accommodation,20181201072117,, ,4539859,Vancouver Island, ,,2979,1087689.9449999998,472666.2670000009
Destination BC,accommodationServices,Accommodation services,HelloBC Accomodations Listing,1669,The Roses B&B,Bed & Breakfasts;,"5570 Kitsuksis St, Port Alberni, BC",5570 Kitsuksis St,5570 Kitsuksis St,V9Y8V8,Port Alberni,,,,,,49.2712208,-124.8152447,Accommodation,20181201072117,, ,4540774,Vancouver Island, ,,3715,1086293.828,473486.04899999965
Destination BC,accommodationServices,Accommodation services,HelloBC Accomodations Listing,1670,Glen Lyon Inn,Hotels & Motels;,"6435 Hardy Bay Rd, Port Hardy, BC","6435 Hardy Bay Rd, Port Hardy, BC",6435 Hardy Bay Rd,V0N2P0,Port Hardy,,,,,,50.710795,-127.490366,Accommodation,20181201072117,,https://www.facebook.com/pages/Glen-Lyon-Inn-Suites-Port-Hardy-BC/363205133749056,4540556,Vancouver Island, ,,3171,894820.0769999996,633988.5510000028
Destination BC,accommodationServices,Accommodation services,HelloBC Accomodations Listing,1671,Hamilton B&B,Bed & Breakfasts;,"9415 Mayors Way, Port Hardy, BC","9415 Mayors Way, Port Hardy, BC",9415 Mayors Way,V0N2P0,Port Hardy,,,,,,50.72757,-127.509947,Accommodation,20181201072117,, ,4540876,Vancouver Island, ,,3021,893478.2219999984,635884.9719999982
Destination BC,accommodationServices,Accommodation services,HelloBC Accomodations Listing,1672,Quarterdeck Inn & Marina Resort,Hotels & Motels;,"6555 Hardy Bay Rd, Port Hardy, BC",1625 McDonald Road,6555 Hardy Bay Rd,V0N2P0,Port Hardy,,,,www.northcoasthotelresort.com,,50.714498,-127.493944,Accommodation,20181201072118,,https://www.facebook.com/QuarterDeckPub/?rf=194545603918558,4540025,Vancouver Island, ,,4149,894576.3029999991,634406.0329999989
Destination BC,accommodationServices,Accommodation services,HelloBC Accomodations Listing,1673,Port Hardy RV Resort,Cabins & Cottages; Campgrounds & RV Parks - Private;,"8080 Goodspeed Rd, Port Hardy, BC","8080 Goodspeed Rd, Port Hardy, BC",8080 Goodspeed Rd,V0N2P0,Port Hardy,,,,www.blackbearresort.net,,50.6974957,-127.4777287,Accommodation,20181201072116,, ,4539848,Vancouver Island, ,,2217,895680.8979999993,632489.5899999989
Destination BC,accommodationServices,Accommodation services,HelloBC Accomodations Listing,1674,April Point Resort & Spa,Hotels & Motels; Resorts; Vacation Rentals;,"900 April Point Rd, Quadra Island, BC",1327 Beach Dr,900 April Point Rd,V0P1N0,Quadra Island,,,,www.northcoasthotelresort.com,,50.0651858,-125.2362966,Accommodation,20181201072117,,http://www.facebook.com/aprilpoint,4540000,Vancouver Island, ,,2651,1054675.0079999988,561329.7760000033
Destination BC,accommodationServices,Accommodation services,HelloBC Accomodations Listing,1675,Heriot Bay Inn & Marina,Hotels & Motels; Resorts; Cabins & Cottages; Campgrounds & RV Parks - Private;,"673 Hotel Rd (Heriot Bay), Quadra Island, BC","673 Hotel Rd (Heriot Bay), Quadra Island, BC",673 Hotel Rd (Heriot Bay),V0P1H0,Quadra Island,,,,,,50.1016432,-125.2132416,Accommodation,20181201072117,,http://www.facebook.com/heriotbayinn,4539844,Vancouver Island,http://twitter.com/heriotbayinn,,3285,1056280.4210000008,565403.1820000019
Destination BC,accommodationServices,Accommodation services,HelloBC Accomodations Listing,1676,Taku Resort & Marina,Vacation Rentals; Cabins & Cottages; Campgrounds & RV Parks - Private;,"616 Taku Rd (Heriot Bay), Quadra Island, BC","616 Taku Rd (Heriot Bay), Quadra Island, BC",616 Taku Rd (Heriot Bay),V0P1H0,Quadra Island,,,,www.takuresort.com,,50.1008446,-125.2054954,Accommodation,20181201072117,,http://www.facebook.com/TakuResort,4540028,Vancouver Island,https://twitter.com/takuresort,,2897,1056835.5160000003,565320.5330000026
Destination BC,accommodationServices,Accommodation services,HelloBC Accomodations Listing,1677,Tsa-Kwa-Luten Lodge & RV Park,Hotels & Motels; Resorts; Cabins & Cottages; Campgrounds & RV Parks - Private;,"1 Lighthouse Rd, Quadra Island, BC","1 Lighthouse Rd, Quadra Island, BC",1 Lighthouse Rd,V0P1N0,Quadra Island,,,,,,49.9956909,-125.1888532,Accommodation,20181201072117,,https://www.facebook.com/capemudgeresort,4540969,Vancouver Island,https://twitter.com/TsaKwaLuten,,2969,1058159.9999999993,553637.9049999947
Destination BC,accommodationServices,Accommodation services,HelloBC Accomodations Listing,1678,Whiskey Point Resort,Hotels & Motels;,"725 Quathiaski Rd, Quadra Island, BC","725 Quathiaski Rd, Quadra Island, BC",725 Quathiaski Rd,V0P1N0,Quadra Island,,,,www.whiskeypoint.com,,50.0404384,-125.2121617,Accommodation,20181201072116,,https://www.facebook.com/whiskeypoint,4541092,Vancouver Island,http://twitter.com/whiskeypoint,,2285,1056433.437000001,558596.0609999998
Destination BC,accommodationServices,Accommodation services,HelloBC Accomodations Listing,1679,Qualicum Bay Resort,Hotels & Motels; Cabins & Cottages; Campgrounds & RV Parks - Private;,"5970 Island Hwy W, Qualicum Bay, BC",5970 Island Hwy W,5970 Island Hwy W,V9K2N1,Qualicum Bay,,,,,,49.4022049,-124.62495799999999,Accommodation,20181201072118,,http://www.facebook.com/qualicumbayresort,4539827,Vancouver Island, ,,3971,1099869.3819999993,488289.3929999983
Destination BC,accommodationServices,Accommodation services,HelloBC Accomodations Listing,1680,Sea Flame Beach Resort,Cabins & Cottages;,"6383 Island Hwy W, Qualicum Bay, BC",310-1835 Piercy Ave,6383 Island Hwy W,V9K2E5,Qualicum Bay,,,,,,49.3594788,-124.4704578,Accommodation,20181201072117,, ,4540602,Vancouver Island, ,,3197,1111191.6659999986,483772.48099999875
Destination BC,accommodationServices,Accommodation services,HelloBC Accomodations Listing,1681,Ocean Crest Motel,Hotels & Motels;,"3292 W Island Hwy, Qualicum Beach, BC",3292 W Island Hwy,3292 W Island Hwy,V9K2C6,Qualicum Beach,,,,,,49.359791799999996,-124.4724846,Accommodation,20181201072118,,https://www.facebook.com/oceancrestmotel/,4540979,Vancouver Island, ,,3893,1111043.598,483804.07199999597
Destination BC,accommodationServices,Accommodation services,HelloBC Accomodations Listing,1682,Westerlea Motel,Hotels & Motels;,"3281 Island Hwy W, Qualicum Beach, BC",3281 Island Hwy W,3281 Island Hwy W,V9K2C6,Qualicum Beach,,,,,,49.3597376,-124.4708061,Accommodation,20181201072116,, ,4539881,Vancouver Island, ,,2191,1111165.729000001,483800.6929999972
Destination BC,accommodationServices,Accommodation services,HelloBC Accomodations Listing,1683,Cusheon Lake Resort,Cabins & Cottages;,"171 Natalie Lane, Salt Spring Island, BC",171 Natalie Lane,171 Natalie Lane,V8K2C6,Salt Spring Island,,,,,,48.813182,-123.466222,Accommodation,20181201072117,,https://www.facebook.com/cusheonlake/,4540659,Vancouver Island,https://twitter.com/cusheonlake,,2891,1186342.158,425222.81900000013
Destination BC,accommodationServices,Accommodation services,HelloBC Accomodations Listing,1684,Salt Spring Way B&B,Bed & Breakfasts;,"100 Salt Spring Way, Salt Spring Island, BC",100 Salt Spring Way,100 Salt Spring Way,V8K2G3,Salt Spring Island,,,,,,48.8278522,-123.4747195,Accommodation,20181201072117,, ,4540893,Vancouver Island, ,,3727,1185659.3960000004,426828.3590000002
Destination BC,accommodationServices,Accommodation services,HelloBC Accomodations Listing,1685,Wisteria Guest House,Bed & Breakfasts; Cabins & Cottages;,"268 Park Dr, Salt Spring Island, BC",268 Park Dr,268 Park Dr,V8K2S1,Salt Spring Island,,,,,,48.857779,-123.50932,Accommodation,20181201072117,, ,4540525,Vancouver Island, ,,3631,1182999.7230000002,430059.2349999994
Destination BC,accommodationServices,Accommodation services,HelloBC Accomodations Listing,1686,Maple Ridge Cottages,Cabins & Cottages;,"301 Tripp Rd, Salt Spring Island, BC",301 Tripp Rd,301 Tripp Rd,V8K1K6,Salt Spring Island,,,,,,48.8844857,-123.5460873,Accommodation,20181201072115,,https://www.facebook.com/MapleRidgeCottages/?fref=nf,4541019,Vancouver Island, ,,1455,1180196.6000000003,432928.73700000066
Destination BC,accommodationServices,Accommodation services,HelloBC Accomodations Listing,1687,St. Mary Lake Resort,Cabins & Cottages;,"1170 North End Rd, Salt Spring Island, BC",1170 North End Rd,1170 North End Rd,V8K1M1,Salt Spring Island,,,,,,48.884178999999996,-123.531944,Accommodation,20181201072116,,http://www.facebook.com/pages/St-Mary-Lake-Resort/655922861143390,4539899,Vancouver Island, ,,2469,1181235.9439999994,432930.8040000014
Destination BC,accommodationServices,Accommodation services,HelloBC Accomodations Listing,1688,Sea 4 Miles Cottages,Cabins & Cottages;,"145 Kaleva Rd, Sointula, BC","145 Kaleva Rd, Sointula, BC",145 Kaleva Rd,V0N3E0,Sointula,,,,,,50.6249762,-126.9721102,Accommodation,20181201072116,, ,4540874,Vancouver Island, ,,2783,931260.9580000011,623799.6790000005
